[{"actor_1":"Siddarth","actor_2":"Nithya Menon","actor_3":"Priya Anand","director":"Jayendra","distributor":" ","fun_facts":" ","locations":"Epic Roasthouse (399 Embarcadero)","production_company":"SPI Cinemas","release_year":2011,"title":"180","writer":"Umarji Anuradha, Jayendra, Aarthi Sriram, & Suba ","lat":37.7904574,"lng":-122.3890122},{"actor_1":"Siddarth","actor_2":"Nithya Menon","actor_3":"Priya Anand","director":"Jayendra","distributor":" ","fun_facts":" ","locations":"Mason & California Streets (Nob Hill)","production_company":"SPI Cinemas","release_year":2011,"title":"180","writer":"Umarji Anuradha, Jayendra, Aarthi Sriram, & Suba ","lat":37.791549,"lng":-122.4107938},{"actor_1":"Siddarth","actor_2":"Nithya Menon","actor_3":"Priya Anand","director":"Jayendra","distributor":" ","fun_facts":" ","locations":"Justin Herman Plaza","production_company":"SPI Cinemas","release_year":2011,"title":"180","writer":"Umarji Anuradha, Jayendra, Aarthi Sriram, & Suba ","lat":37.7749295,"lng":-122.4194155},{"actor_1":"Siddarth","actor_2":"Nithya Menon","actor_3":"Priya Anand","director":"Jayendra","distributor":" ","fun_facts":" ","locations":"200 block Market Street","production_company":"SPI Cinemas","release_year":2011,"title":"180","writer":"Umarji Anuradha, Jayendra, Aarthi Sriram, & Suba ","lat":37.7931322,"lng":-122.3965605},{"actor_1":"Siddarth","actor_2":"Nithya Menon","actor_3":"Priya Anand","director":"Jayendra","distributor":" ","fun_facts":" ","locations":"City Hall","production_company":"SPI Cinemas","release_year":2011,"title":"180","writer":"Umarji Anuradha, Jayendra, Aarthi Sriram, & Suba ","lat":37.5841781,"lng":-122.0775434},{"actor_1":"Siddarth","actor_2":"Nithya Menon","actor_3":"Priya Anand","director":"Jayendra","distributor":" ","fun_facts":" ","locations":"Polk & Larkin Streets","production_company":"SPI Cinemas","release_year":2011,"title":"180","writer":"Umarji Anuradha, Jayendra, Aarthi Sriram, & Suba ","lat":37.790797,"lng":-122.4190635},{"actor_1":"Siddarth","actor_2":"Nithya Menon","actor_3":"Priya Anand","director":"Jayendra","distributor":" ","fun_facts":" ","locations":"Randall Museum","production_company":"SPI Cinemas","release_year":2011,"title":"180","writer":"Umarji Anuradha, Jayendra, Aarthi Sriram, & Suba ","lat":37.7749295,"lng":-122.4194155},{"actor_1":"Siddarth","actor_2":"Nithya Menon","actor_3":"Priya Anand","director":"Jayendra","distributor":" ","fun_facts":" ","locations":"555 Market St.","production_company":"SPI Cinemas","release_year":2011,"title":"180","writer":"Umarji Anuradha, Jayendra, Aarthi Sriram, & Suba ","lat":37.789999,"lng":-122.3999088},{"actor_1":"Adam Sandler","actor_2":"Drew Barrymore","actor_3":"Rob Schneider","director":"Peter Segal","distributor":"Columbia Pictures","fun_facts":" ","locations":"Rainforest Caf\u00e9 (145 Jefferson Street)","production_company":"Columbia Pictures Corporation","release_year":2004,"title":"50 First Dates","writer":"George Wing","lat":37.8080708,"lng":-122.4146114},{"actor_1":"Charles Chaplin","actor_2":" ","actor_3":" ","director":"Charles Chaplin","distributor":"General Film Company","fun_facts":" ","locations":"20th and Folsom Streets","production_company":"The Essanay Film Manufacturing Company","release_year":1915,"title":"A Jitney Elopement","writer":"Charles Chaplin","lat":37.7589107,"lng":-122.4147198},{"actor_1":"Charles Chaplin","actor_2":" ","actor_3":" ","director":"Charles Chaplin","distributor":"General Film Company","fun_facts":"During San Francisco's Gold Rush era, the Park was part of an area designated as the \"Great Sand Waste\". ","locations":"Golden Gate Park","production_company":"The Essanay Film Manufacturing Company","release_year":1915,"title":"A Jitney Elopement","writer":"Charles Chaplin","lat":37.76904,"lng":-122.4835193},{"actor_1":"Candice Bergen","actor_2":"Giancarlo Gianni","actor_3":" ","director":"Lina Wertmuller","distributor":"Warner Bros. Pictures","fun_facts":"Embarcadero Freeway, which was featured in the film was demolished in 1989 because of structural damage from the 1989 Loma Prieta Earthquake)","locations":"Embarcadero Freeway","production_company":"Liberty Film","release_year":1978,"title":"A Night Full of Rain","writer":"Lina Wertmuller","lat":37.7489402,"lng":-122.3928481},{"actor_1":"Candice Bergen","actor_2":"Giancarlo Gianni","actor_3":" ","director":"Lina Wertmuller","distributor":"Warner Bros. Pictures","fun_facts":"In 1945 the Fairmont hosted the United Nations Conference on International Organization as delegates arrived to draft a charter for the organization. The U.S. Secretary of State, Edward Stettinius drafted the charter in the hotel's Garden Room.","locations":"Fairmont Hotel (950 Mason Street, Nob Hill)","production_company":"Liberty Film","release_year":1978,"title":"A Night Full of Rain","writer":"Lina Wertmuller","lat":37.7924959,"lng":-122.4100354},{"actor_1":"Candice Bergen","actor_2":"Giancarlo Gianni","actor_3":" ","director":"Lina Wertmuller","distributor":"Warner Bros. Pictures","fun_facts":"The San Francisco Zodiac Killer of the late 1960s sent his notes and letters to the Chronicle's offices.","locations":"San Francisco Chronicle (901 Mission Street at 15th Street)","production_company":"Liberty Film","release_year":1978,"title":"A Night Full of Rain","writer":"Lina Wertmuller","lat":37.7666804,"lng":-122.4198536},{"actor_1":"Candice Bergen","actor_2":"Giancarlo Gianni","actor_3":" ","director":"Lina Wertmuller","distributor":"Warner Bros. Pictures","fun_facts":" ","locations":"Broadway (North Beach)","production_company":"Liberty Film","release_year":1978,"title":"A Night Full of Rain","writer":"Lina Wertmuller","lat":37.7984385,"lng":-122.4022479},{"actor_1":"Greg Kinnear","actor_2":"Lauren Holly","actor_3":"Joan Cusack","director":"Keith Samples","distributor":"Paramount Pictures","fun_facts":" ","locations":"75 California Street","production_company":"Paramount Pictures","release_year":1997,"title":"A Smile Like Yours","writer":"Keith Samples & Kevin Meyer","lat":37.7935486,"lng":-122.3973319},{"actor_1":"Greg Kinnear","actor_2":"Lauren Holly","actor_3":"Joan Cusack","director":"Keith Samples","distributor":"Paramount Pictures","fun_facts":"Grace Cathedral Episcopal Church is the West Coast's largest Episcopalian cathedral.","locations":"Grace Cathedral Episcopal Church (1100 California Street)","production_company":"Paramount Pictures","release_year":1997,"title":"A Smile Like Yours ","writer":"Keith Samples & Kevin Meyer","lat":37.7918345,"lng":-122.4133435},{"actor_1":"Greg Kinnear","actor_2":"Lauren Holly","actor_3":"Joan Cusack","director":"Keith Samples","distributor":"Paramount Pictures","fun_facts":" ","locations":"Hills Brothers Plaza (Embarcadero at Harrison Street)","production_company":"Paramount Pictures","release_year":1997,"title":"A Smile Like Yours ","writer":"Keith Samples & Kevin Meyer","lat":37.772843,"lng":-122.4097083},{"actor_1":"Greg Kinnear","actor_2":"Lauren Holly","actor_3":"Joan Cusack","director":"Keith Samples","distributor":"Paramount Pictures","fun_facts":"SFO has a museum dedicated to aviation history. ","locations":"San Francisco International Airport","production_company":"Paramount Pictures","release_year":1997,"title":"A Smile Like Yours ","writer":"Keith Samples & Kevin Meyer","lat":37.6213129,"lng":-122.3789554},{"actor_1":"Roger Moore","actor_2":"Christopher Walken","actor_3":" ","director":"John Glen","distributor":"MGM\/UA Entertainment Company","fun_facts":"The dome of SF's City Hall is almost a foot taller than that of the US Capitol Building. In 1954, Joe DiMaggio and Marilyn Monroe married at the Beaux Arts-style building.","locations":"City Hall","production_company":"Metro-Goldwyn Mayer","release_year":1985,"title":"A View to a Kill","writer":"Richard Maibaum","lat":37.5841781,"lng":-122.0775434},{"actor_1":"Roger Moore","actor_2":"Christopher Walken","actor_3":" ","director":"John Glen","distributor":"MGM\/UA Entertainment Company","fun_facts":" ","locations":"Port of San Francisco ","production_company":"Metro-Goldwyn Mayer","release_year":1985,"title":"A View to a Kill","writer":"Richard Maibaum","lat":37.6213129,"lng":-122.3789554},{"actor_1":"Roger Moore","actor_2":"Christopher Walken","actor_3":" ","director":"John Glen","distributor":"MGM\/UA Entertainment Company","fun_facts":"This is SF's only drawbridge, and was named after Francis Joseph \"Lefty\" O'Doul, a local baseball hero.","locations":"Lefty O' Doul Drawbridge\/ 3rd Street Bridge (3rd Street, China Basin)","production_company":"Metro-Goldwyn Mayer","release_year":1985,"title":"A View to a Kill","writer":"Richard Maibaum","lat":37.7793668,"lng":-122.3934134},{"actor_1":"Roger Moore","actor_2":"Christopher Walken","actor_3":" ","director":"John Glen","distributor":"MGM\/UA Entertainment Company","fun_facts":"With 23 miles of ladders and 300,000 rivets in each tower, the Golden Gate Bridge was the world's longest span when it opened in 1937.","locations":"Golden Gate Bridge","production_company":"Metro-Goldwyn Mayer","release_year":1985,"title":"A View to a Kill","writer":"Richard Maibaum","lat":37.8190534,"lng":-122.4784055},{"actor_1":" ","actor_2":" ","actor_3":" ","director":"Gabriele Muccino","distributor":" ","fun_facts":" ","locations":"20th St and Church (3885 20th St)","production_company":"Creative Monster Productions, Inc.","release_year":2015,"title":"Summertime","writer":" ","lat":37.7579422,"lng":-122.4275639},{"actor_1":"Roger Moore","actor_2":"Christopher Walken","actor_3":" ","director":"John Glen","distributor":"MGM\/UA Entertainment Company","fun_facts":"Embarcadero Freeway, which was featured in the film, was demolished in 1989 because of structural damage from the 1989 Loma Prieta Earthquake)","locations":"Embarcadero Freeway","production_company":"Metro-Goldwyn Mayer","release_year":1985,"title":"A View to a Kill","writer":"Richard Maibaum","lat":37.7489402,"lng":-122.3928481},{"actor_1":"Roger Moore","actor_2":"Christopher Walken","actor_3":" ","director":"John Glen","distributor":"MGM\/UA Entertainment Company","fun_facts":"The most crooked street in San Francisco is actually Potrero Hill's Vermont Street between 20th St & 22nd St.","locations":"Potrero Hill","production_company":"Metro-Goldwyn Mayer","release_year":1985,"title":"A View to a Kill","writer":"Richard Maibaum","lat":37.7604929,"lng":-122.400869},{"actor_1":"Roger Moore","actor_2":"Christopher Walken","actor_3":" ","director":"John Glen","distributor":"MGM\/UA Entertainment Company","fun_facts":"The dome of SF's City Hall is almost a foot taller than that of the US Capitol Building. In 1954, Joe DiMaggio and Marilyn Monroe married at the Beaux Arts-style building.","locations":"City Hall","production_company":"Metro-Goldwyn Mayer","release_year":1985,"title":"A View to a Kill","writer":"Richard Maibaum","lat":37.5841781,"lng":-122.0775434},{"actor_1":"Roger Moore","actor_2":"Christopher Walken","actor_3":" ","director":"John Glen","distributor":"MGM\/UA Entertainment Company","fun_facts":"First established in the mid-19th Century, SF's Chinatown is the oldest and largest Chinatown in the US.","locations":"Chinatown","production_company":"Metro-Goldwyn Mayer","release_year":1985,"title":"A View to a Kill","writer":"Richard Maibaum","lat":37.7941378,"lng":-122.4077914},{"actor_1":"Roger Moore","actor_2":"Christopher Walken","actor_3":" ","director":"John Glen","distributor":"MGM\/UA Entertainment Company","fun_facts":" ","locations":"Burger Island (901 3rd Street, China Basin)","production_company":"Metro-Goldwyn Mayer","release_year":1985,"title":"A View to a Kill","writer":"Richard Maibaum","lat":37.777359,"lng":-122.3908507},{"actor_1":"Roger Moore","actor_2":"Christopher Walken","actor_3":" ","director":"John Glen","distributor":"MGM\/UA Entertainment Company","fun_facts":" ","locations":"Van Ness Avenue","production_company":"Metro-Goldwyn Mayer","release_year":1985,"title":"A View to a Kill","writer":"Richard Maibaum","lat":37.7913054,"lng":-122.4226118},{"actor_1":"Roger Moore","actor_2":"Christopher Walken","actor_3":" ","director":"John Glen","distributor":"MGM\/UA Entertainment Company","fun_facts":" ","locations":"Taylor and Jefferson Streets (Fisherman's Wharf)","production_company":"Metro-Goldwyn Mayer","release_year":1985,"title":"A View to a Kill","writer":"Richard Maibaum","lat":37.8082214,"lng":-122.4158081},{"actor_1":"David Walton","actor_2":"Minnie Driver","actor_3":" ","director":"Mark J. Kunerth","distributor":"National Broadcasting Company","fun_facts":" ","locations":"Broderick from Fulton to McAlister","production_company":"NBC Studios","release_year":2014,"title":"About a Boy","writer":"Jason Katims","lat":37.7749295,"lng":-122.4194155},{"actor_1":"David Walton","actor_2":"Minnie Driver","actor_3":" ","director":"Mark J. Kunerth","distributor":"National Broadcasting Company","fun_facts":" ","locations":"Crissy Field","production_company":"NBC Studios","release_year":2014,"title":"About a Boy","writer":"Jason Katims","lat":37.8039069,"lng":-122.4640618},{"actor_1":"David Walton","actor_2":"Minnie Driver","actor_3":" ","director":"Mark J. Kunerth","distributor":"National Broadcasting Company","fun_facts":" ","locations":"Powell from Bush and Sutter","production_company":"NBC Studios","release_year":2014,"title":"About a Boy","writer":"Jason Katims","lat":37.7749295,"lng":-122.4194155},{"actor_1":"Blake Lively","actor_2":"Harrison Ford","actor_3":"Ellen Burstyn","director":"Lee Toland Krieger","distributor":" ","fun_facts":" ","locations":"Pier 50- end of the pier","production_company":"Lionsgate \/ Sidney Kimmel Entertainment \/ Lakeshore Entertainment","release_year":2015,"title":"Age of Adaline","writer":"J. Mills Goodloe","lat":"","lng":""},{"actor_1":"Blake Lively","actor_2":"Harrison Ford","actor_3":"Ellen Burstyn","director":"Lee Toland Krieger","distributor":" ","fun_facts":" ","locations":"California @ Montgomery","production_company":"Lionsgate \/ Sidney Kimmel Entertainment \/ Lakeshore Entertainment","release_year":2015,"title":"Age of Adaline","writer":"J. Mills Goodloe","lat":37.7928648,"lng":-122.40279},{"actor_1":"Blake Lively","actor_2":"Harrison Ford","actor_3":"Ellen Burstyn","director":"Lee Toland Krieger","distributor":" ","fun_facts":" ","locations":"Montgomery\/Green","production_company":"Lionsgate \/ Sidney Kimmel Entertainment \/ Lakeshore Entertainment","release_year":2015,"title":"Age of Adaline","writer":"J. Mills Goodloe","lat":37.800247,"lng":-122.4590343},{"actor_1":"Blake Lively","actor_2":"Harrison Ford","actor_3":"Ellen Burstyn","director":"Lee Toland Krieger","distributor":" ","fun_facts":" ","locations":"Driving various SF Streets","production_company":"Lionsgate \/ Sidney Kimmel Entertainment \/ Lakeshore Entertainment","release_year":2015,"title":"Age of Adaline","writer":"J. Mills Goodloe","lat":37.7749295,"lng":-122.4194155},{"actor_1":"Blake Lively","actor_2":"Harrison Ford","actor_3":"Ellen Burstyn","director":"Lee Toland Krieger","distributor":" ","fun_facts":" ","locations":"Plate Shots SF streets various","production_company":"Lionsgate \/ Sidney Kimmel Entertainment \/ Lakeshore Entertainment","release_year":2015,"title":"Age of Adaline","writer":"J. Mills Goodloe","lat":37.7749295,"lng":-122.4194155},{"actor_1":"William Powell","actor_2":"Myrna Loy","actor_3":"James Stewart","director":"W.S. Van Dyke","distributor":"Metro-Goldwyn Mayer","fun_facts":"The Tower was funded by a gift bequeathed by Lillie Hitchcock Coit, a socialite who reportedly liked to chase fires. Though the tower resembles a firehose nozzle, it was not designed this way.","locations":"Coit Tower","production_company":"Metro-Goldwyn Mayer","release_year":1936,"title":"After the Thin Man","writer":"Frances Goodrich","lat":37.8023949,"lng":-122.4058222},{"actor_1":"Sarah Jones","actor_2":"Elizabeth Sarnoff","actor_3":"Bryan Wynbrandt","director":"J.J. Abrams","distributor":"Warner Bros. Television","fun_facts":" ","locations":"Filbert St. from Jones to Mason","production_company":"Bonanza Productions Inc.","release_year":2012,"title":"Alcatraz","writer":"Steven Lilien","lat":37.7749295,"lng":-122.4194155},{"actor_1":"Sarah Jones","actor_2":"Elizabeth Sarnoff","actor_3":"Bryan Wynbrandt","director":"J.J. Abrams","distributor":"Warner Bros. Television","fun_facts":" ","locations":"Leavenworth from Filbert & Francisco St","production_company":"Bonanza Productions Inc.","release_year":2012,"title":"Alcatraz","writer":"Steven Lilien","lat":37.8030188,"lng":-122.4265895},{"actor_1":"Sarah Jones","actor_2":"Elizabeth Sarnoff","actor_3":"Bryan Wynbrandt","director":"J.J. Abrams","distributor":"Warner Bros. Television","fun_facts":" ","locations":"Chestnut St. from Larkin to Columbus","production_company":"Bonanza Productions Inc.","release_year":2012,"title":"Alcatraz","writer":"Steven Lilien","lat":37.7749295,"lng":-122.4194155},{"actor_1":"Sarah Jones","actor_2":"Elizabeth Sarnoff","actor_3":"Bryan Wynbrandt","director":"J.J. Abrams","distributor":"Warner Bros. Television","fun_facts":" ","locations":"Francisco St from Larkin to Polk","production_company":"Bonanza Productions Inc.","release_year":2012,"title":"Alcatraz","writer":"Steven Lilien","lat":37.7749295,"lng":-122.4194155},{"actor_1":"Sarah Jones","actor_2":"Elizabeth Sarnoff","actor_3":"Bryan Wynbrandt","director":"J.J. Abrams","distributor":"Warner Bros. Television","fun_facts":" ","locations":"Broadway from Mason to Taylor","production_company":"Bonanza Productions Inc.","release_year":2012,"title":"Alcatraz","writer":"Steven Lilien","lat":37.7749295,"lng":-122.4194155},{"actor_1":"Sarah Jones","actor_2":"Elizabeth Sarnoff","actor_3":"Bryan Wynbrandt","director":"J.J. Abrams","distributor":"Warner Bros. Television","fun_facts":" ","locations":"Taylor St. from Broadway to Filbert","production_company":"Bonanza Productions Inc.","release_year":2012,"title":"Alcatraz","writer":"Steven Lilien","lat":37.8019672,"lng":-122.4046607},{"actor_1":"Tyrone Power","actor_2":"Alice Faye","actor_3":" ","director":"Henry King","distributor":"Twentieth Century Fox Film Corporation","fun_facts":"In 1887, the Cliff House was severely damaged when the schooner Parallel, abandoned and loaded with dynamite, ran aground on the rocks below.","locations":"Cliff House (1090 Point Lobos Avenue)","production_company":"Twentieth Century Fox Film Corporation","release_year":1938,"title":"Alexander's Ragtime Band","writer":"Kathryn Scola","lat":37.7785674,"lng":-122.5139647},{"actor_1":"Tyrone Power","actor_2":"Alice Faye","actor_3":" ","director":"Henry King","distributor":"Twentieth Century Fox Film Corporation","fun_facts":" ","locations":"San Francisco Bay","production_company":"Twentieth Century Fox Film Corporation","release_year":1938,"title":"Alexander's Ragtime Band","writer":"Kathryn Scola","lat":37.6909682,"lng":-122.3107517},{"actor_1":"Michael Douglas","actor_2":"Paul Rudd","actor_3":" ","director":"Peyton Reed","distributor":"Walt Disney Studios Motion Pictures","fun_facts":"Driving shots","locations":"California between Kearney and Davis","production_company":"PYM Particles Productions, LLC","release_year":2015,"title":"Ant-Man","writer":"Gabriel Ferrari ","lat":37.7749295,"lng":-122.4194155},{"actor_1":"Tyrone Power","actor_2":"Alice Faye","actor_3":" ","director":"Henry King","distributor":"Twentieth Century Fox Film Corporation","fun_facts":"In 1945 the Fairmont hosted the United Nations Conference on International Organization as delegates arrived to draft a charter for the organization. The U.S. Secretary of State, Edward Stettinius drafted the charter in the hotel's Garden Room.","locations":"Fairmont Hotel (950 Mason Street, Nob Hill)","production_company":"Twentieth Century Fox Film Corporation","release_year":1938,"title":"Alexander's Ragtime Band","writer":"Kathryn Scola","lat":37.7924959,"lng":-122.4100354},{"actor_1":"Bette Davis","actor_2":"Anne Baxter","actor_3":" ","director":"Joseph L. Mankiewicz","distributor":"Twentieth Century Fox Film Corp.","fun_facts":"Called the Shubert Theatre in the film. ","locations":"Curran Theater (445 Geary Street)","production_company":"Twentieth Century Fox Film Corp.","release_year":1950,"title":"All About Eve","writer":"Joseph L. Mankiewicz","lat":37.7868283,"lng":-122.4106277},{"actor_1":"Kelli Garner","actor_2":"Jack Davenport","actor_3":"Peter Coyote","director":"Zachary Shedd","distributor":" ","fun_facts":" ","locations":"St. Francis Episcopal Church (399 San Fernando Way)","production_company":"Sutro Films LLC","release_year":2015,"title":"Americana","writer":"Zachary Shedd","lat":37.7305535,"lng":-122.4696664},{"actor_1":"Kelli Garner","actor_2":"Jack Davenport","actor_3":"Peter Coyote","director":"Zachary Shedd","distributor":" ","fun_facts":" ","locations":"Romolo Place @ Fresno St.","production_company":"Sutro Films LLC","release_year":2015,"title":"Americana","writer":"Zachary Shedd","lat":37.7986013,"lng":-122.4063965},{"actor_1":"Kelli Garner","actor_2":"Jack Davenport","actor_3":"Peter Coyote","director":"Zachary Shedd","distributor":" ","fun_facts":" ","locations":"Palace of Fine Arts","production_company":"Sutro Films LLC","release_year":2015,"title":"Americana","writer":"Zachary Shedd","lat":37.8014783,"lng":-122.448175},{"actor_1":"Kelli Garner","actor_2":"Jack Davenport","actor_3":"Peter Coyote","director":"Zachary Shedd","distributor":" ","fun_facts":" ","locations":"John Shelley Drive John McLaren Park","production_company":"Sutro Films LLC","release_year":2015,"title":"Americana","writer":"Zachary Shedd","lat":37.719309,"lng":-122.4193742},{"actor_1":"Kelli Garner","actor_2":"Jack Davenport","actor_3":"Peter Coyote","director":"Zachary Shedd","distributor":" ","fun_facts":" ","locations":"Treasure Island","production_company":"Sutro Films LLC","release_year":2015,"title":"Americana","writer":"Zachary Shedd","lat":37.8235515,"lng":-122.370648},{"actor_1":"Kelli Garner","actor_2":"Jack Davenport","actor_3":"Peter Coyote","director":"Zachary Shedd","distributor":" ","fun_facts":" ","locations":"The San Francisco School (300 Gavin St.)","production_company":"Sutro Films LLC","release_year":2015,"title":"Americana","writer":"Zachary Shedd","lat":37.7749295,"lng":-122.4194155},{"actor_1":"Kelli Garner","actor_2":"Jack Davenport","actor_3":"Peter Coyote","director":"Zachary Shedd","distributor":" ","fun_facts":" ","locations":"33 Spruce St","production_company":"Sutro Films LLC","release_year":2015,"title":"Americana","writer":"Zachary Shedd","lat":37.7903215,"lng":-122.4543691},{"actor_1":"Kelli Garner","actor_2":"Jack Davenport","actor_3":"Peter Coyote","director":"Zachary Shedd","distributor":" ","fun_facts":" ","locations":"Coi Restaurant (373 Broadway)","production_company":"Sutro Films LLC","release_year":2015,"title":"Americana","writer":"Zachary Shedd","lat":37.7980647,"lng":-122.4034273},{"actor_1":"Kelli Garner","actor_2":"Jack Davenport","actor_3":"Peter Coyote","director":"Zachary Shedd","distributor":" ","fun_facts":" ","locations":"Foreign Cinema (2534 Mission)","production_company":"Sutro Films LLC","release_year":2015,"title":"Americana","writer":"Zachary Shedd","lat":37.7749295,"lng":-122.4194155},{"actor_1":"Kelli Garner","actor_2":"Jack Davenport","actor_3":"Peter Coyote","director":"Zachary Shedd","distributor":" ","fun_facts":" ","locations":"Bernal Heights Park","production_company":"Sutro Films LLC","release_year":2015,"title":"Americana","writer":"Zachary Shedd","lat":37.7429227,"lng":-122.4133908},{"actor_1":"Kelli Garner","actor_2":"Jack Davenport","actor_3":"Peter Coyote","director":"Zachary Shedd","distributor":" ","fun_facts":" ","locations":"Jackson St. at Spruce","production_company":"Sutro Films LLC","release_year":2015,"title":"Americana","writer":"Zachary Shedd","lat":37.7899861,"lng":-122.4541352},{"actor_1":"Kelli Garner","actor_2":"Jack Davenport","actor_3":"Peter Coyote","director":"Zachary Shedd","distributor":" ","fun_facts":" ","locations":"679 Madrid St","production_company":"Sutro Films LLC","release_year":2015,"title":"Americana","writer":"Zachary Shedd","lat":37.718722,"lng":-122.434653},{"actor_1":"Kelli Garner","actor_2":"Jack Davenport","actor_3":"Peter Coyote","director":"Zachary Shedd","distributor":" ","fun_facts":" ","locations":"Roxie Theater (3117 16th St.)","production_company":"Sutro Films LLC","release_year":2015,"title":"Americana","writer":"Zachary Shedd","lat":37.7647103,"lng":-122.4224081},{"actor_1":"Kelli Garner","actor_2":"Jack Davenport","actor_3":"Peter Coyote","director":"Zachary Shedd","distributor":" ","fun_facts":" ","locations":"Variety Preview Room (582 Market St.)","production_company":"Sutro Films LLC","release_year":2015,"title":"Americana","writer":"Zachary Shedd","lat":37.7894639,"lng":-122.401621},{"actor_1":"Kelli Garner","actor_2":"Jack Davenport","actor_3":"Peter Coyote","director":"Zachary Shedd","distributor":" ","fun_facts":" ","locations":"Laguna Honda Hospital; 375 Laguna Honda Blvd.","production_company":"Sutro Films LLC","release_year":2015,"title":"Americana","writer":"Zachary Shedd","lat":37.7472906,"lng":-122.4592484},{"actor_1":"Kelli Garner","actor_2":"Jack Davenport","actor_3":"Peter Coyote","director":"Zachary Shedd","distributor":" ","fun_facts":" ","locations":"3232 Jackson Ave.","production_company":"Sutro Films LLC","release_year":2015,"title":"Americana","writer":"Zachary Shedd","lat":37.790931,"lng":-122.448797},{"actor_1":"Kelli Garner","actor_2":"Jack Davenport","actor_3":"Peter Coyote","director":"Zachary Shedd","distributor":" ","fun_facts":" ","locations":"20th St and Illinois\/Faxon St. and Kenwood\/Glenbrook at Mt. Springs","production_company":"Sutro Films LLC","release_year":2015,"title":"Americana","writer":"Zachary Shedd","lat":37.7749295,"lng":-122.4194155},{"actor_1":"Richard Dreyfuss","actor_2":" ","actor_3":" ","director":"George Lucas","distributor":"Universal Pictures'","fun_facts":"This restaurant location was demolished; however another Mel's was reopened in 1986 on 3355 Geary Blvd. ","locations":"Mel's Drive-In (Corner of Van Ness & Mission Street, Mission District)","production_company":"Universal Pictures","release_year":1973,"title":"American Graffiti","writer":"George Lucas","lat":37.7591301,"lng":-122.4191262},{"actor_1":"Richard Dreyfuss","actor_2":" ","actor_3":" ","director":"George Lucas","distributor":"Universal Pictures'","fun_facts":" ","locations":"3355 Geary Blvd.","production_company":"Universal Pictures","release_year":1973,"title":"American Graffiti","writer":"George Lucas","lat":37.7811314,"lng":-122.4548989},{"actor_1":"Michael Douglas","actor_2":"Paul Rudd","actor_3":" ","director":"Peyton Reed","distributor":"Walt Disney Studios Motion Pictures","fun_facts":"Aerial shots","locations":"Conzelman Rd at McCollough Rd and down Conzelman Rd.","production_company":"PYM Particles Productions, LLC","release_year":2015,"title":"Ant-Man","writer":"Gabriel Ferrari ","lat":37.7749295,"lng":-122.4194155},{"actor_1":"Michael Douglas","actor_2":"Paul Rudd","actor_3":" ","director":"Peyton Reed","distributor":"Walt Disney Studios Motion Pictures","fun_facts":" ","locations":"Lombard at Hyde","production_company":"PYM Particles Productions, LLC","release_year":2015,"title":"Ant-Man","writer":"Gabriel Ferrari ","lat":37.8020051,"lng":-122.419635},{"actor_1":"Michael Douglas","actor_2":"Paul Rudd","actor_3":" ","director":"Peyton Reed","distributor":"Walt Disney Studios Motion Pictures","fun_facts":" ","locations":"601 Buena Vista Ave West at Java St.","production_company":"PYM Particles Productions, LLC","release_year":2015,"title":"Ant-Man","writer":"Gabriel Ferrari ","lat":37.7669535,"lng":-122.4439685},{"actor_1":"Michael Douglas","actor_2":"Paul Rudd","actor_3":" ","director":"Peyton Reed","distributor":"Walt Disney Studios Motion Pictures","fun_facts":" ","locations":"420 Jones St. at Ellis St.","production_company":"PYM Particles Productions, LLC","release_year":2015,"title":"Ant-Man","writer":"Gabriel Ferrari ","lat":37.7851232,"lng":-122.4126633},{"actor_1":"Michael Douglas","actor_2":"Paul Rudd","actor_3":" ","director":"Peyton Reed","distributor":"Walt Disney Studios Motion Pictures","fun_facts":"Driving shots","locations":"Broadway between Powell and Davis","production_company":"PYM Particles Productions, LLC","release_year":2015,"title":"Ant-Man","writer":"Gabriel Ferrari ","lat":37.7749295,"lng":-122.4194155},{"actor_1":"Michael Douglas","actor_2":"Paul Rudd","actor_3":" ","director":"Peyton Reed","distributor":"Walt Disney Studios Motion Pictures","fun_facts":"Driving shots","locations":"Columbus between Bay and Washington","production_company":"PYM Particles Productions, LLC","release_year":2015,"title":"Ant-Man","writer":"Gabriel Ferrari ","lat":37.7749295,"lng":-122.4194155},{"actor_1":"Michael Douglas","actor_2":"Paul Rudd","actor_3":" ","director":"Peyton Reed","distributor":"Walt Disney Studios Motion Pictures","fun_facts":"Driving shots","locations":"Pine between Kearney and Davis","production_company":"PYM Particles Productions, LLC","release_year":2015,"title":"Ant-Man","writer":"Gabriel Ferrari ","lat":37.7749295,"lng":-122.4194155},{"actor_1":"Michael Douglas","actor_2":"Paul Rudd","actor_3":" ","director":"Peyton Reed","distributor":"Walt Disney Studios Motion Pictures","fun_facts":"Driving shots","locations":"Market between Stuart and Van Ness","production_company":"PYM Particles Productions, LLC","release_year":2015,"title":"Ant-Man","writer":"Gabriel Ferrari ","lat":37.7749295,"lng":-122.4194155},{"actor_1":"Michael Douglas","actor_2":"Paul Rudd","actor_3":" ","director":"Peyton Reed","distributor":"Walt Disney Studios Motion Pictures","fun_facts":"Driving shots","locations":"Grant between Bush and Broadway","production_company":"PYM Particles Productions, LLC","release_year":2015,"title":"Ant-Man","writer":"Gabriel Ferrari ","lat":37.7959394,"lng":-122.4218895},{"actor_1":"Michael Douglas","actor_2":"Paul Rudd","actor_3":" ","director":"Peyton Reed","distributor":"Walt Disney Studios Motion Pictures","fun_facts":"Driving shots","locations":"Intersection of Broadway at Kearney","production_company":"PYM Particles Productions, LLC","release_year":2015,"title":"Ant-Man","writer":"Gabriel Ferrari ","lat":37.7980203,"lng":-122.4055234},{"actor_1":"Michael Douglas","actor_2":"Paul Rudd","actor_3":" ","director":"Peyton Reed","distributor":"Walt Disney Studios Motion Pictures","fun_facts":"Driving shots","locations":"Intersection of California at Polk","production_company":"PYM Particles Productions, LLC","release_year":2015,"title":"Ant-Man","writer":"Gabriel Ferrari ","lat":37.7905896,"lng":-122.4206988},{"actor_1":"Michael Douglas","actor_2":"Paul Rudd","actor_3":" ","director":"Peyton Reed","distributor":"Walt Disney Studios Motion Pictures","fun_facts":"Aerial and exterior shots","locations":"Treasure Island, Building #1, Ave of the Palms","production_company":"PYM Particles Productions, LLC","release_year":2015,"title":"Ant-Man","writer":"Gabriel Ferrari ","lat":37.8172777,"lng":-122.3709364},{"actor_1":"Tara Reid","actor_2":" ","actor_3":" ","director":"John Jacobsen","distributor":"Ardustry Home Entertainment","fun_facts":"On Jan. 25, 1878, the King Philip ship crashed in Ocean Beach. Occasionally, the ship's wreckage may be found on the beach-- most recently it was seen in 2007. ","locations":"Ocean Beach","production_company":"Paradigm Studio","release_year":1998,"title":"Around the Fire","writer":"John Comerford","lat":37.7740354,"lng":-122.5124988},{"actor_1":"David Miller","actor_2":" ","actor_3":" ","director":"John DeBello","distributor":"NAI Entertainment","fun_facts":"SF Cable Cars are the only moving National Historical Landmark.","locations":"Hyde Street Cable Car","production_company":"Four Square Productions","release_year":1978,"title":"Attack of the Killer Tomatoes","writer":"John DeBello","lat":37.7749295,"lng":-122.4194155},{"actor_1":"Michael Douglas","actor_2":"Sharon Stone","actor_3":"George Dzundza","director":"Paul Verhoeven","distributor":"TriStar Pictures","fun_facts":" ","locations":"Yerba Buena Center for the Arts","production_company":"Carolco Pictures","release_year":1992,"title":"Basic Instinct","writer":"Joe Eszterhas","lat":37.7749295,"lng":-122.4194155},{"actor_1":"Michael Douglas","actor_2":"Sharon Stone","actor_3":"George Dzundza","director":"Paul Verhoeven","distributor":"TriStar Pictures","fun_facts":"Built in 1939, the Terminal linked San Francisco, the East Bay, and Sacramento by rail for the first time.","locations":"Transbay Terminal (Mission Street at 1st Street)","production_company":"Carolco Pictures","release_year":1992,"title":"Basic Instinct","writer":"Joe Eszterhas","lat":37.7881209,"lng":-122.3954958},{"actor_1":"Michael Douglas","actor_2":"Sharon Stone","actor_3":"George Dzundza","director":"Paul Verhoeven","distributor":"TriStar Pictures","fun_facts":" ","locations":"Tosca Caf\u00e9 (242 Columbus Avenue)","production_company":"Carolco Pictures","release_year":1992,"title":"Basic Instinct","writer":"Joe Eszterhas","lat":37.7976266,"lng":-122.4058736},{"actor_1":"Michael Douglas","actor_2":"Sharon Stone","actor_3":"George Dzundza","director":"Paul Verhoeven","distributor":"TriStar Pictures","fun_facts":"The Steinhart Aquarium is home to over 38,000 animals, which represent more than 900 species. ","locations":"Steinhart Aquarium (California Academy of Sciences, Golden Gate Park)","production_company":"Carolco Pictures","release_year":1992,"title":"Basic Instinct","writer":"Joe Eszterhas","lat":37.76904,"lng":-122.4835193},{"actor_1":"Michael Douglas","actor_2":"Sharon Stone","actor_3":"George Dzundza","director":"Paul Verhoeven","distributor":"TriStar Pictures","fun_facts":" ","locations":"Raw Hide II (280 Seventh Street)","production_company":"Carolco Pictures","release_year":1992,"title":"Basic Instinct","writer":"Joe Eszterhas","lat":37.776817,"lng":-122.408527},{"actor_1":"Michael Douglas","actor_2":"Sharon Stone","actor_3":"George Dzundza","director":"Paul Verhoeven","distributor":"TriStar Pictures","fun_facts":" ","locations":"Pier 7 (The Embarcadero)","production_company":"Carolco Pictures","release_year":1992,"title":"Basic Instinct","writer":"Joe Eszterhas","lat":37.7993901,"lng":-122.3955956},{"actor_1":"Michael Douglas","actor_2":"Sharon Stone","actor_3":"George Dzundza","director":"Paul Verhoeven","distributor":"TriStar Pictures","fun_facts":" ","locations":"Kearney Street (Telegraph Hill)","production_company":"Carolco Pictures","release_year":1992,"title":"Basic Instinct","writer":"Joe Eszterhas","lat":37.8016977,"lng":-122.4062152},{"actor_1":"Michael Douglas","actor_2":"Sharon Stone","actor_3":"George Dzundza","director":"Paul Verhoeven","distributor":"TriStar Pictures","fun_facts":" ","locations":"Hall of Justice (850 Bryant Street)","production_company":"Carolco Pictures","release_year":1992,"title":"Basic Instinct","writer":"Joe Eszterhas","lat":37.7753904,"lng":-122.404191},{"actor_1":"Michael Douglas","actor_2":"Sharon Stone","actor_3":"George Dzundza","director":"Paul Verhoeven","distributor":"TriStar Pictures","fun_facts":" ","locations":"2930 Vallejo Street","production_company":"Carolco Pictures","release_year":1992,"title":"Basic Instinct","writer":"Joe Eszterhas","lat":37.794164,"lng":-122.445704},{"actor_1":"Michael Douglas","actor_2":"Sharon Stone","actor_3":"George Dzundza","director":"Paul Verhoeven","distributor":"TriStar Pictures","fun_facts":"First established in the mid-19th Century, SF's Chinatown is the oldest and largest Chinatown in the US.","locations":"Chinatown","production_company":"Carolco Pictures","release_year":1992,"title":"Basic Instinct","writer":"Joe Eszterhas","lat":37.7941378,"lng":-122.4077914},{"actor_1":"Michael Douglas","actor_2":"Sharon Stone","actor_3":"George Dzundza","director":"Paul Verhoeven","distributor":"TriStar Pictures","fun_facts":" ","locations":"Gibb Street (Chinatown)","production_company":"Carolco Pictures","release_year":1992,"title":"Basic Instinct","writer":"Joe Eszterhas","lat":37.7960524,"lng":-122.4042824},{"actor_1":"Michael Douglas","actor_2":"Sharon Stone","actor_3":"George Dzundza","director":"Paul Verhoeven","distributor":"TriStar Pictures","fun_facts":" ","locations":"1158-70 Montgomery Street","production_company":"Carolco Pictures","release_year":1992,"title":"Basic Instinct","writer":"Joe Eszterhas","lat":37.799987,"lng":-122.403972},{"actor_1":"Michael Douglas","actor_2":"Sharon Stone","actor_3":"George Dzundza","director":"Paul Verhoeven","distributor":"TriStar Pictures","fun_facts":" ","locations":"2104 Broadway","production_company":"Carolco Pictures","release_year":1992,"title":"Basic Instinct","writer":"Joe Eszterhas","lat":37.7946685,"lng":-122.4320419},{"actor_1":"Brendan Fraser","actor_2":"Elizabeth Hurley","actor_3":" ","director":"Harold Ramis","distributor":"Twentieth Century Fox Film Corp.","fun_facts":" ","locations":"1155 Filbert Street at Hyde","production_company":"Twentieth Century Fox Film Corp.","release_year":2000,"title":"Bedazzled","writer":"Harold Ramis","lat":37.7999164,"lng":-122.4183705},{"actor_1":"Brendan Fraser","actor_2":"Elizabeth Hurley","actor_3":" ","director":"Harold Ramis","distributor":"Twentieth Century Fox Film Corp.","fun_facts":" ","locations":"Washington Square Park (Filbert, between Stockton and Powell)","production_company":"Twentieth Century Fox Film Corp.","release_year":2000,"title":"Bedazzled","writer":"Harold Ramis","lat":37.7749295,"lng":-122.4194155},{"actor_1":"Cate Blanchett","actor_2":"Alec Baldwin","actor_3":"Peter Sarsgaard","director":"Woody Allen","distributor":"Sony Pictures Classics","fun_facts":" ","locations":"5546 Geary Ave","production_company":"Perdido Productions","release_year":2013,"title":"Blue Jasmine","writer":"Woody Allen","lat":37.7806041,"lng":-122.4792052},{"actor_1":"Brendan Fraser","actor_2":"Elizabeth Hurley","actor_3":" ","director":"Harold Ramis","distributor":"Twentieth Century Fox Film Corp.","fun_facts":"Installed in 1975, the Vaillancourt Fountain is officially titled, \"Qu\u00e9bec Libre!\". The night before the sculpture's inauguration, artist Armand Vaillancourt inscribed \"Qu\u00e9bec libre!\" in red letters on the sculpture. The next day when he noticed that the note had been erased, Vaillancourt jumped on the statue to re-inscribe his message. ","locations":"Vaillancourt Fountain (Justin Herman Plaza)","production_company":"Twentieth Century Fox Film Corp.","release_year":2000,"title":"Bedazzled","writer":"Harold Ramis","lat":37.7749295,"lng":-122.4194155},{"actor_1":"Brendan Fraser","actor_2":"Elizabeth Hurley","actor_3":" ","director":"Harold Ramis","distributor":"Twentieth Century Fox Film Corp.","fun_facts":" ","locations":"Montgomery & Market Streets","production_company":"Twentieth Century Fox Film Corp.","release_year":2000,"title":"Bedazzled","writer":"Harold Ramis","lat":37.7888201,"lng":-122.4019967},{"actor_1":"Brendan Fraser","actor_2":"Elizabeth Hurley","actor_3":" ","director":"Harold Ramis","distributor":"Twentieth Century Fox Film Corp.","fun_facts":"The dome of SF's City Hall is almost a foot taller than that of the US Capitol Building. In 1954, Joe DiMaggio and Marilyn Monroe married at the Beaux Arts-style building.","locations":"City Hall","production_company":"Twentieth Century Fox Film Corp.","release_year":2000,"title":"Bedazzled","writer":"Harold Ramis","lat":37.5841781,"lng":-122.0775434},{"actor_1":"Robin Williams","actor_2":" ","actor_3":" ","director":"Chris Columbus","distributor":"Buena Vista Pictures","fun_facts":"The dome of SF's City Hall is almost a foot taller than that of the US Capitol Building. In 1954, Joe DiMaggio and Marilyn Monroe married at the Beaux Arts-style building.","locations":"City Hall","production_company":"1492 Pictures","release_year":1999,"title":"Bicentennial Man","writer":"Nicholas Kazan","lat":37.5841781,"lng":-122.0775434},{"actor_1":"Robin Williams","actor_2":" ","actor_3":" ","director":"Chris Columbus","distributor":"Buena Vista Pictures","fun_facts":"With 23 miles of ladders and 300,000 rivets in each tower, the Golden Gate Bridge was the world's longest span when it opened in 1937.","locations":"Golden Gate Bridge","production_company":"1492 Pictures","release_year":1999,"title":"Bicentennial Man","writer":"Nicholas Kazan","lat":37.8190534,"lng":-122.4784055},{"actor_1":"Robin Williams","actor_2":" ","actor_3":" ","director":"Chris Columbus","distributor":"Buena Vista Pictures","fun_facts":"An artificial island, Treasure Island was created for the 1939 Golden Gate International Exposition, and is named after the novel by Robert Louis Stevenson, a one-time San Francisco resident.","locations":"Treasure Island","production_company":"1492 Pictures","release_year":1999,"title":"Bicentennial Man","writer":"Nicholas Kazan","lat":37.8235515,"lng":-122.370648},{"actor_1":"Robin Williams","actor_2":" ","actor_3":" ","director":"Chris Columbus","distributor":"Buena Vista Pictures","fun_facts":"The 6 Victorian homes across from Alamo Square Park are among the few Victorians to survive the Great Fire.","locations":"Postcard Row, Alamo Square, Hayes Valley","production_company":"1492 Pictures","release_year":1999,"title":"Bicentennial Man","writer":"Nicholas Kazan","lat":37.7759073,"lng":-122.4245247},{"actor_1":"Robin Williams","actor_2":" ","actor_3":" ","director":"Chris Columbus","distributor":"Buena Vista Pictures","fun_facts":"Grace Cathedral Episcopal Church is the West Coast's largest Episcopalian cathedral.","locations":"Grace Cathedral Episcopal Church (1100 California Street)","production_company":"1492 Pictures","release_year":1999,"title":"Bicentennial Man","writer":"Nicholas Kazan","lat":37.7918345,"lng":-122.4133435},{"actor_1":"Amy Adams","actor_2":"Krysten Ritter","actor_3":"Christoph Waltz","director":"Tim Burton","distributor":"Weinstein Company","fun_facts":" ","locations":"Nobles Alley","production_company":"Blink & Wink Productions","release_year":2014,"title":"Big Eyes","writer":"Scott Alexander","lat":37.8010161,"lng":-122.4071519},{"actor_1":"Amy Adams","actor_2":"Krysten Ritter","actor_3":"Christoph Waltz","director":"Tim Burton","distributor":"Weinstein Company","fun_facts":" ","locations":"Caffe Trieste","production_company":"Blink & Wink Productions","release_year":2014,"title":"Big Eyes","writer":"Scott Alexander","lat":37.7749295,"lng":-122.4194155},{"actor_1":"Amy Adams","actor_2":"Krysten Ritter","actor_3":"Christoph Waltz","director":"Tim Burton","distributor":"Weinstein Company","fun_facts":" ","locations":"Palace of Fine Arts","production_company":"Blink & Wink Productions","release_year":2014,"title":"Big Eyes","writer":"Scott Alexander","lat":37.8014783,"lng":-122.448175},{"actor_1":"Amy Adams","actor_2":"Krysten Ritter","actor_3":"Christoph Waltz","director":"Tim Burton","distributor":"Weinstein Company","fun_facts":" ","locations":"1101 Filbert St. ","production_company":"Blink & Wink Productions","release_year":2014,"title":"Big Eyes","writer":"Scott Alexander","lat":37.8002042,"lng":-122.4178309},{"actor_1":"Amy Adams","actor_2":"Krysten Ritter","actor_3":"Christoph Waltz","director":"Tim Burton","distributor":"Weinstein Company","fun_facts":" ","locations":"Saints Peter & Paul Church","production_company":"Blink & Wink Productions","release_year":2014,"title":"Big Eyes","writer":"Scott Alexander","lat":37.7749295,"lng":-122.4194155},{"actor_1":"Amy Adams","actor_2":"Krysten Ritter","actor_3":"Christoph Waltz","director":"Tim Burton","distributor":"Weinstein Company","fun_facts":" ","locations":"Green St. & Grant Ave.","production_company":"Blink & Wink Productions","release_year":2014,"title":"Big Eyes","writer":"Scott Alexander","lat":37.7997122,"lng":-122.4074155},{"actor_1":"Amy Adams","actor_2":"Krysten Ritter","actor_3":"Christoph Waltz","director":"Tim Burton","distributor":"Weinstein Company","fun_facts":" ","locations":"Filbert St. & Leavenworth","production_company":"Blink & Wink Productions","release_year":2014,"title":"Big Eyes","writer":"Scott Alexander","lat":37.8003487,"lng":-122.4176339},{"actor_1":"Amy Adams","actor_2":"Krysten Ritter","actor_3":"Christoph Waltz","director":"Tim Burton","distributor":"Weinstein Company","fun_facts":" ","locations":"Pine St. & Grant","production_company":"Blink & Wink Productions","release_year":2014,"title":"Big Eyes","writer":"Scott Alexander","lat":37.7915062,"lng":-122.4057618},{"actor_1":"Amy Adams","actor_2":"Krysten Ritter","actor_3":"Christoph Waltz","director":"Tim Burton","distributor":"Weinstein Company","fun_facts":" ","locations":"Way Faire Inn on Leidesdorff","production_company":"Blink & Wink Productions","release_year":2014,"title":"Big Eyes","writer":"Scott Alexander","lat":37.7749295,"lng":-122.4194155},{"actor_1":"Amy Adams","actor_2":"Krysten Ritter","actor_3":"Christoph Waltz","director":"Tim Burton","distributor":"Weinstein Company","fun_facts":" ","locations":"Harry's Bar on Fillmore","production_company":"Blink & Wink Productions","release_year":2014,"title":"Big Eyes","writer":"Scott Alexander","lat":37.7807663,"lng":-122.4293132},{"actor_1":"Josh Lucas","actor_2":"Kate Bosworth","actor_3":"Stana Katic","director":"Michael Polish","distributor":" ","fun_facts":" ","locations":"Tosca Caf\u00e9 (242 Columbus Avenue, North Beach)","production_company":"3311 Productions","release_year":2013,"title":"Big Sur","writer":"Jack Kerouac & Michael Polish","lat":37.7976266,"lng":-122.4058736},{"actor_1":"Burt Lancaster","actor_2":"Karl Maden","actor_3":" ","director":"John Frankenheimer","distributor":"United Artists","fun_facts":"Alcatraz Island was a military fort before it became a prison.","locations":"Alcatraz Island","production_company":"Norma Productions","release_year":1962,"title":"Birdman of Alcatraz","writer":"Guy Trosper","lat":37.8269775,"lng":-122.4229555},{"actor_1":"Burt Lancaster","actor_2":"Karl Maden","actor_3":" ","director":"John Frankenheimer","distributor":"United Artists","fun_facts":" ","locations":"Pier 43 1\/2","production_company":"Norma Productions","release_year":1962,"title":"Birdman of Alcatraz","writer":"Guy Trosper","lat":"","lng":""},{"actor_1":"Cate Blanchett","actor_2":"Alec Baldwin","actor_3":"Peter Sarsgaard","director":"Woody Allen","distributor":"Sony Pictures Classics","fun_facts":" ","locations":"Jones & Pacific","production_company":"Perdido Productions","release_year":2013,"title":"Blue Jasmine","writer":"Woody Allen","lat":37.7958902,"lng":-122.4150305},{"actor_1":"Cate Blanchett","actor_2":"Alec Baldwin","actor_3":"Peter Sarsgaard","director":"Woody Allen","distributor":"Sony Pictures Classics","fun_facts":" ","locations":"Pacific & Divisadero","production_company":"Perdido Productions","release_year":2013,"title":"Blue Jasmine","writer":"Woody Allen","lat":37.7925186,"lng":-122.44136},{"actor_1":"Cate Blanchett","actor_2":"Alec Baldwin","actor_3":"Peter Sarsgaard","director":"Woody Allen","distributor":"Sony Pictures Classics","fun_facts":" ","locations":"Lombard & Hyde","production_company":"Perdido Productions","release_year":2013,"title":"Blue Jasmine","writer":"Woody Allen","lat":37.8020051,"lng":-122.419635},{"actor_1":"Cate Blanchett","actor_2":"Alec Baldwin","actor_3":"Peter Sarsgaard","director":"Woody Allen","distributor":"Sony Pictures Classics","fun_facts":" ","locations":"2898 Broadway","production_company":"Perdido Productions","release_year":2013,"title":"Blue Jasmine","writer":"Woody Allen","lat":37.793335,"lng":-122.44471},{"actor_1":"Cate Blanchett","actor_2":"Alec Baldwin","actor_3":"Peter Sarsgaard","director":"Woody Allen","distributor":"Sony Pictures Classics","fun_facts":" ","locations":"Motel Capri","production_company":"Perdido Productions","release_year":2013,"title":"Blue Jasmine","writer":"Woody Allen","lat":37.7749295,"lng":-122.4194155},{"actor_1":"Cate Blanchett","actor_2":"Alec Baldwin","actor_3":"Peter Sarsgaard","director":"Woody Allen","distributor":"Sony Pictures Classics","fun_facts":" ","locations":"Marina Green","production_company":"Perdido Productions","release_year":2013,"title":"Blue Jasmine","writer":"Woody Allen","lat":37.8066235,"lng":-122.4391137},{"actor_1":"Cate Blanchett","actor_2":"Alec Baldwin","actor_3":"Peter Sarsgaard","director":"Woody Allen","distributor":"Sony Pictures Classics","fun_facts":" ","locations":"Ocean Beach at Lincoln","production_company":"Perdido Productions","release_year":2013,"title":"Blue Jasmine","writer":"Woody Allen","lat":37.7749295,"lng":-122.4194155},{"actor_1":"Cate Blanchett","actor_2":"Alec Baldwin","actor_3":"Peter Sarsgaard","director":"Woody Allen","distributor":"Sony Pictures Classics","fun_facts":" ","locations":"Heald College","production_company":"Perdido Productions","release_year":2013,"title":"Blue Jasmine","writer":"Woody Allen","lat":37.7749295,"lng":-122.4194155},{"actor_1":"Cate Blanchett","actor_2":"Alec Baldwin","actor_3":"Peter Sarsgaard","director":"Woody Allen","distributor":"Sony Pictures Classics","fun_facts":" ","locations":"Marina Blvd from Laguna to Baker","production_company":"Perdido Productions","release_year":2013,"title":"Blue Jasmine","writer":"Woody Allen","lat":37.7749295,"lng":-122.4194155},{"actor_1":"Cate Blanchett","actor_2":"Alec Baldwin","actor_3":"Peter Sarsgaard","director":"Woody Allen","distributor":"Sony Pictures Classics","fun_facts":" ","locations":"330 Santa Clara Ave.","production_company":"Perdido Productions","release_year":2013,"title":"Blue Jasmine","writer":"Woody Allen","lat":37.734209,"lng":-122.466499},{"actor_1":"Cate Blanchett","actor_2":"Alec Baldwin","actor_3":"Peter Sarsgaard","director":"Woody Allen","distributor":"Sony Pictures Classics","fun_facts":" ","locations":"200 Post St. ","production_company":"Perdido Productions","release_year":2013,"title":"Blue Jasmine","writer":"Woody Allen","lat":37.788804,"lng":-122.4053893},{"actor_1":"Cate Blanchett","actor_2":"Alec Baldwin","actor_3":"Peter Sarsgaard","director":"Woody Allen","distributor":"Sony Pictures Classics","fun_facts":" ","locations":"2179 48th Ave","production_company":"Perdido Productions","release_year":2013,"title":"Blue Jasmine","writer":"Woody Allen","lat":37.745553,"lng":-122.507258},{"actor_1":"Cate Blanchett","actor_2":"Alec Baldwin","actor_3":"Peter Sarsgaard","director":"Woody Allen","distributor":"Sony Pictures Classics","fun_facts":" ","locations":"The Ramp Restaurant","production_company":"Perdido Productions","release_year":2013,"title":"Blue Jasmine","writer":"Woody Allen","lat":37.7749295,"lng":-122.4194155},{"actor_1":"Cate Blanchett","actor_2":"Alec Baldwin","actor_3":"Peter Sarsgaard","director":"Woody Allen","distributor":"Sony Pictures Classics","fun_facts":" ","locations":"303-305 S. Van Ness","production_company":"Perdido Productions","release_year":2013,"title":"Blue Jasmine","writer":"Woody Allen","lat":37.7682683,"lng":-122.4176369},{"actor_1":"Cate Blanchett","actor_2":"Alec Baldwin","actor_3":"Peter Sarsgaard","director":"Woody Allen","distributor":"Sony Pictures Classics","fun_facts":" ","locations":"3563 20th St.","production_company":"Perdido Productions","release_year":2013,"title":"Blue Jasmine","writer":"Woody Allen","lat":37.7584616,"lng":-122.420399},{"actor_1":"Cate Blanchett","actor_2":"Alec Baldwin","actor_3":"Peter Sarsgaard","director":"Woody Allen","distributor":"Sony Pictures Classics","fun_facts":" ","locations":"Taylor & Green St.","production_company":"Perdido Productions","release_year":2013,"title":"Blue Jasmine","writer":"Woody Allen","lat":37.7989091,"lng":-122.4139396},{"actor_1":"Cate Blanchett","actor_2":"Alec Baldwin","actor_3":"Peter Sarsgaard","director":"Woody Allen","distributor":"Sony Pictures Classics","fun_facts":" ","locations":"Grant & Washington St.","production_company":"Perdido Productions","release_year":2013,"title":"Blue Jasmine","writer":"Woody Allen","lat":37.7951547,"lng":-122.4065011},{"actor_1":"Cate Blanchett","actor_2":"Alec Baldwin","actor_3":"Peter Sarsgaard","director":"Woody Allen","distributor":"Sony Pictures Classics","fun_facts":" ","locations":"2934 24th St.","production_company":"Perdido Productions","release_year":2013,"title":"Blue Jasmine","writer":"Woody Allen","lat":37.7529414,"lng":-122.4107026},{"actor_1":"Cate Blanchett","actor_2":"Alec Baldwin","actor_3":"Peter Sarsgaard","director":"Woody Allen","distributor":"Sony Pictures Classics","fun_facts":" ","locations":"1138 Alabama St","production_company":"Perdido Productions","release_year":2013,"title":"Blue Jasmine","writer":"Woody Allen","lat":37.75367,"lng":-122.4112992},{"actor_1":"Cate Blanchett","actor_2":"Alec Baldwin","actor_3":"Peter Sarsgaard","director":"Woody Allen","distributor":"Sony Pictures Classics","fun_facts":" ","locations":"South Park","production_company":"Perdido Productions","release_year":2013,"title":"Blue Jasmine","writer":"Woody Allen","lat":37.7815501,"lng":-122.3940353},{"actor_1":"Cate Blanchett","actor_2":"Alec Baldwin","actor_3":"Peter Sarsgaard","director":"Woody Allen","distributor":"Sony Pictures Classics","fun_facts":" ","locations":"2915 16th St.","production_company":"Perdido Productions","release_year":2013,"title":"Blue Jasmine","writer":"Woody Allen","lat":37.7650165,"lng":-122.4179625},{"actor_1":"Cate Blanchett","actor_2":"Alec Baldwin","actor_3":"Peter Sarsgaard","director":"Woody Allen","distributor":"Sony Pictures Classics","fun_facts":" ","locations":"Trolley Car from Market and 11th","production_company":"Perdido Productions","release_year":2013,"title":"Blue Jasmine","writer":"Woody Allen","lat":37.7749295,"lng":-122.4194155},{"actor_1":"Cate Blanchett","actor_2":"Alec Baldwin","actor_3":"Peter Sarsgaard","director":"Woody Allen","distributor":"Sony Pictures Classics","fun_facts":" ","locations":"Real Guitars","production_company":"Perdido Productions","release_year":2013,"title":"Blue Jasmine","writer":"Woody Allen","lat":37.7749295,"lng":-122.4194155},{"actor_1":"Cate Blanchett","actor_2":"Alec Baldwin","actor_3":"Peter Sarsgaard","director":"Woody Allen","distributor":"Sony Pictures Classics","fun_facts":" ","locations":"Aub Zam Zam Bar","production_company":"Perdido Productions","release_year":2013,"title":"Blue Jasmine","writer":"Woody Allen","lat":37.7749295,"lng":-122.4194155},{"actor_1":"Cate Blanchett","actor_2":"Alec Baldwin","actor_3":"Peter Sarsgaard","director":"Woody Allen","distributor":"Sony Pictures Classics","fun_facts":" ","locations":"790 Ulloa ","production_company":"Perdido Productions","release_year":2013,"title":"Blue Jasmine","writer":"Woody Allen","lat":37.7408258,"lng":-122.4646626},{"actor_1":"Cate Blanchett","actor_2":"Alec Baldwin","actor_3":"Peter Sarsgaard","director":"Woody Allen","distributor":"Sony Pictures Classics","fun_facts":" ","locations":"SFO International Airport Terminal 3","production_company":"Perdido Productions","release_year":2013,"title":"Blue Jasmine","writer":"Woody Allen","lat":37.7749295,"lng":-122.4194155},{"actor_1":"Cate Blanchett","actor_2":"Alec Baldwin","actor_3":"Peter Sarsgaard","director":"Woody Allen","distributor":"Sony Pictures Classics","fun_facts":" ","locations":"2178 Palou Ave.","production_company":"Perdido Productions","release_year":2013,"title":"Blue Jasmine","writer":"Woody Allen","lat":37.7406288,"lng":-122.4015231},{"actor_1":"Freddie Prinze, Jr.","actor_2":"Alyson Hannigan","actor_3":" ","director":"Robert Iscove","distributor":"Dimension Films","fun_facts":" ","locations":"1122 Folsom Street","production_company":"Punch 21 Productions","release_year":2000,"title":"Boys and Girls","writer":"The Drews","lat":37.7764013,"lng":-122.4087109},{"actor_1":"Freddie Prinze, Jr.","actor_2":"Alyson Hannigan","actor_3":" ","director":"Robert Iscove","distributor":"Dimension Films","fun_facts":"Though Marilyn Monroe and Joe DiMaggio were not allowed to be married at the Church (DiMaggio had married his first wife at the Church but was divorced), the couple returned to the steps of the Church for photos, following their City Hall nuptials.","locations":"St. Peter & Paul's Church (666 Filbert Street, Washington Square)","production_company":"Punch 21 Productions","release_year":2000,"title":"Boys and Girls","writer":"The Drews","lat":37.8009182,"lng":-122.410111},{"actor_1":"Freddie Prinze, Jr.","actor_2":"Alyson Hannigan","actor_3":" ","director":"Robert Iscove","distributor":"Dimension Films","fun_facts":"With 23 miles of ladders and 300,000 rivets in each tower, the Golden Gate Bridge was the world's longest span when it opened in 1937.","locations":"Golden Gate Bridge","production_company":"Punch 21 Productions","release_year":2000,"title":"Boys and Girls","writer":"The Drews","lat":37.8190534,"lng":-122.4784055},{"actor_1":"Steve McQueen","actor_2":"Jacqueline Bisset","actor_3":"Dermot Mulroney","director":"Peter Yates","distributor":"Warner Brothers","fun_facts":" ","locations":"Cesar Chavez & Mission Street (Mission)","production_company":"Warner Brothers \/ Seven Arts\nSeven Arts","release_year":1968,"title":"Bullitt","writer":"Alan R. Trustman","lat":37.7482293,"lng":-122.4182139},{"actor_1":"Freddie Prinze, Jr.","actor_2":"Alyson Hannigan","actor_3":" ","director":"Robert Iscove","distributor":"Dimension Films","fun_facts":"Supposedly, Mikhail S. Gorbachev has said that his favorite part of visiting America was touring Fisherman's Wharf.","locations":"Fisherman's Wharf","production_company":"Punch 21 Productions","release_year":2000,"title":"Boys and Girls","writer":"The Drews","lat":37.8079996,"lng":-122.4177434},{"actor_1":" ","actor_2":" ","actor_3":" ","director":"Gabriele Muccino","distributor":" ","fun_facts":" ","locations":"Duboce Park","production_company":"Creative Monster Productions, Inc.","release_year":2015,"title":"Summertime","writer":" ","lat":37.7695613,"lng":-122.4324905},{"actor_1":"Freddie Prinze, Jr.","actor_2":"Alyson Hannigan","actor_3":" ","director":"Robert Iscove","distributor":"Dimension Films","fun_facts":"Every hour and half-hour, the clock bell atop the Ferry Building chimes portions of the Westminster Quarters.","locations":"Ferry Building","production_company":"Punch 21 Productions","release_year":2000,"title":"Boys and Girls","writer":"The Drews","lat":37.7955805,"lng":-122.3934111},{"actor_1":"Freddie Prinze, Jr.","actor_2":"Alyson Hannigan","actor_3":" ","director":"Robert Iscove","distributor":"Dimension Films","fun_facts":"The Tower was funded by a gift bequeathed by Lillie Hitchcock Coit, a socialite who reportedly liked to chase fires. Though the tower resembles a firehose nozzle, it was not designed this way.","locations":"Coit Tower","production_company":"Punch 21 Productions","release_year":2000,"title":"Boys and Girls","writer":"The Drews","lat":37.8023949,"lng":-122.4058222},{"actor_1":"Freddie Prinze, Jr.","actor_2":"Alyson Hannigan","actor_3":" ","director":"Robert Iscove","distributor":"Dimension Films","fun_facts":"The dome of SF's City Hall is almost a foot taller than that of the US Capitol Building. In 1954, Joe DiMaggio and Marilyn Monroe married at the Beaux Arts-style building.","locations":"City Hall","production_company":"Punch 21 Productions","release_year":2000,"title":"Boys and Girls","writer":"The Drews","lat":37.5841781,"lng":-122.0775434},{"actor_1":"Freddie Prinze, Jr.","actor_2":"Alyson Hannigan","actor_3":" ","director":"Robert Iscove","distributor":"Dimension Films","fun_facts":"Lombard Street is not actually the most crooked in SF. That honor goes to Potrero Hill's Vermont Street between 22nd and 23rd.","locations":"Lombard Street","production_company":"Punch 21 Productions","release_year":2000,"title":"Boys and Girls","writer":"The Drews","lat":37.8009561,"lng":-122.4270201},{"actor_1":"Freddie Prinze, Jr.","actor_2":"Alyson Hannigan","actor_3":" ","director":"Robert Iscove","distributor":"Dimension Films","fun_facts":"First established in the mid-19th Century, SF's Chinatown is the oldest and largest Chinatown in the US.","locations":"Chinatown","production_company":"Punch 21 Productions","release_year":2000,"title":"Boys and Girls","writer":"The Drews","lat":37.7941378,"lng":-122.4077914},{"actor_1":"Freddie Prinze, Jr.","actor_2":"Alyson Hannigan","actor_3":" ","director":"Robert Iscove","distributor":"Dimension Films","fun_facts":"Located at one end of Fisherman's Wharf, Aquatic Park was built as part of FDR's Works Progress Administration Project.","locations":"Aquatic Park (Jefferson Street)","production_company":"Punch 21 Productions","release_year":2000,"title":"Boys and Girls","writer":"The Drews","lat":37.8662688,"lng":-122.2781584},{"actor_1":"Freddie Prinze, Jr.","actor_2":"Alyson Hannigan","actor_3":" ","director":"Robert Iscove","distributor":"Dimension Films","fun_facts":"Alcatraz Island was a military fort before it became a prison.","locations":"Alcatraz Island","production_company":"Punch 21 Productions","release_year":2000,"title":"Boys and Girls","writer":"The Drews","lat":37.8269775,"lng":-122.4229555},{"actor_1":"Freddie Prinze, Jr.","actor_2":"Alyson Hannigan","actor_3":" ","director":"Robert Iscove","distributor":"Dimension Films","fun_facts":" ","locations":"628 Cole Street","production_company":"Punch 21 Productions","release_year":2000,"title":"Boys and Girls","writer":"The Drews","lat":37.769226,"lng":-122.4504325},{"actor_1":" ","actor_2":" ","actor_3":" ","director":"Ryan K. Whiting","distributor":" ","fun_facts":" ","locations":"Ina Coolbrith Park (1700 Taylor Street)","production_company":"RKW Films","release_year":2010,"title":"Broken-A Modern Love Story ","writer":"Ryan K. Whiting","lat":37.7982629,"lng":-122.4134525},{"actor_1":" ","actor_2":" ","actor_3":" ","director":"Ryan K. Whiting","distributor":" ","fun_facts":" ","locations":"0-100 block Halleck Street","production_company":"RKW Films","release_year":2010,"title":"Broken-A Modern Love Story ","writer":"Ryan K. Whiting","lat":37.8034859,"lng":-122.4543143},{"actor_1":"Steve McQueen","actor_2":"Jacqueline Bisset","actor_3":"Dermot Mulroney","director":"Peter Yates","distributor":"Warner Brothers","fun_facts":" ","locations":"Bayshore Blvd near Cesar Chavez (Bayview)","production_company":"Warner Brothers \/ Seven Arts\nSeven Arts","release_year":1968,"title":"Bullitt","writer":"Alan R. Trustman","lat":37.74989,"lng":-122.3933932},{"actor_1":"Steve McQueen","actor_2":"Jacqueline Bisset","actor_3":"Don Harvey","director":"Peter Yates","distributor":"Warner Brothers","fun_facts":" ","locations":"Taylor & Vallejo Streets (Russian Hill)","production_company":"Warner Brothers \/ Seven Arts\nSeven Arts","release_year":1968,"title":"Bullitt","writer":"Alan R. Trustman","lat":37.7979757,"lng":-122.4137454},{"actor_1":"Steve McQueen","actor_2":"Jacqueline Bisset","actor_3":" ","director":"Peter Yates","distributor":"Warner Brothers","fun_facts":"SF General Hospital is the only Level I Trauma Center serving San Francisco and northern San Mateo County. ","locations":"SF General Hospital Center (1001 Potrero Avenue, Potrero Hill)","production_company":"Warner Brothers \/ Seven Arts\nSeven Arts","release_year":1968,"title":"Bullitt","writer":"Alan R. Trustman","lat":37.7558047,"lng":-122.4044432},{"actor_1":"Steve McQueen","actor_2":"Jacqueline Bisset","actor_3":" ","director":"Peter Yates","distributor":"Warner Brothers","fun_facts":"McLaren Park is the 2nd largest park in San Francisco, after Golden Gate Park.","locations":"McLaren Park (Visitacion  Valley)","production_company":"Warner Brothers \/ Seven Arts\nSeven Arts","release_year":1968,"title":"Bullitt","writer":"Alan R. Trustman","lat":37.719309,"lng":-122.4193742},{"actor_1":"Steve McQueen","actor_2":"Jacqueline Bisset","actor_3":"Liz Phair","director":"Peter Yates","distributor":"Warner Brothers","fun_facts":"The Top of the Mark lounge and restaurant at the top of the hotel was formerly a penthouse suite.","locations":"Mark Hopkins Hotel (999 California Street)","production_company":"Warner Brothers \/ Seven Arts\nSeven Arts","release_year":1968,"title":"Bullitt","writer":"Alan R. Trustman","lat":37.7914761,"lng":-122.4102174},{"actor_1":"Steve McQueen","actor_2":"Jacqueline Bisset","actor_3":"Danny Aiello","director":"Peter Yates","distributor":"Warner Brothers","fun_facts":"Before the 1906 earthquake, the land on which Marina Green sits was a tidal marsh, and rubble from the earthquake was dumped on the site. However, the site was filled in to provide land for the 1915 Panama-Pacific Exhibition. ","locations":"Marina Green (Marina District)","production_company":"Warner Brothers \/ Seven Arts\nSeven Arts","release_year":1968,"title":"Bullitt","writer":"Alan R. Trustman","lat":37.8066235,"lng":-122.4391137},{"actor_1":"Steve McQueen","actor_2":"Jacqueline Bisset","actor_3":"Danny Aiello","director":"Peter Yates","distributor":"Warner Brothers","fun_facts":" ","locations":"Mansell & University Streets (Visitacion  Valley)","production_company":"Warner Brothers \/ Seven Arts\nSeven Arts","release_year":1968,"title":"Bullitt","writer":"Alan R. Trustman","lat":37.7190796,"lng":-122.4110036},{"actor_1":"Steve McQueen","actor_2":"Jacqueline Bisset","actor_3":"Danny Aiello","director":"Peter Yates","distributor":"Warner Brothers","fun_facts":" ","locations":"Larkin & Francisco Streets (Russian Hill)","production_company":"Warner Brothers \/ Seven Arts\nSeven Arts","release_year":1968,"title":"Bullitt","writer":"Alan R. Trustman","lat":37.8035608,"lng":-122.4218062},{"actor_1":"Steve McQueen","actor_2":"Jacqueline Bisset","actor_3":" ","director":"Peter Yates","distributor":"Warner Brothers","fun_facts":" ","locations":"Larkin & Chestnut Streets (Russian Hill)","production_company":"Warner Brothers \/ Seven Arts\nSeven Arts","release_year":1968,"title":"Bullitt","writer":"Alan R. Trustman","lat":37.8027384,"lng":-122.4214411},{"actor_1":"Steve McQueen","actor_2":"Jacqueline Bisset","actor_3":"Colin Friels","director":"Peter Yates","distributor":"Warner Brothers","fun_facts":"Hotel was destroyed in the 1989 Loma Prieta earthquake. Corporate headquarters for the Gap reside at the location today.","locations":"Kennedy Hotel (226 Embarcadero at Howard Street)","production_company":"Warner Brothers \/ Seven Arts\nSeven Arts","release_year":1968,"title":"Bullitt","writer":"Alan R. Trustman","lat":37.7815031,"lng":-122.4049658},{"actor_1":"Steve McQueen","actor_2":"Jacqueline Bisset","actor_3":"Colin Friels","director":"Peter Yates","distributor":"Warner Brothers","fun_facts":" ","locations":"John Muir Drive (Lake Merced)","production_company":"Warner Brothers \/ Seven Arts\nSeven Arts","release_year":1968,"title":"Bullitt","writer":"Alan R. Trustman","lat":37.720251,"lng":-122.4851612},{"actor_1":"Steve McQueen","actor_2":"Jacqueline Bisset","actor_3":"Colin Friels","director":"Peter Yates","distributor":"Warner Brothers","fun_facts":" ","locations":"Intersection of York & Peralta (Bernal Heights)","production_company":"Warner Brothers \/ Seven Arts\nSeven Arts","release_year":1968,"title":"Bullitt","writer":"Alan R. Trustman","lat":37.747484,"lng":-122.4068812},{"actor_1":"Steve McQueen","actor_2":"Jacqueline Bisset","actor_3":"Suzi Mandell","director":"Peter Yates","distributor":"Warner Brothers","fun_facts":" ","locations":"Filbert & Taylor Streets (Russian Hill)","production_company":"Warner Brothers \/ Seven Arts\nSeven Arts","release_year":1968,"title":"Bullitt","writer":"Alan R. Trustman","lat":37.8007601,"lng":-122.414327},{"actor_1":"Annie Q","actor_2":"Francesca Eastwood","actor_3":"Pierson Fode","director":"Annie Wang","distributor":" ","fun_facts":" ","locations":"812 22nd St. and Tennessee","production_company":"Fire Horse Film Productions LLC","release_year":2015,"title":"Cardinal X","writer":"Annie Wang","lat":37.7578889,"lng":-122.3892762},{"actor_1":"Steve McQueen","actor_2":"Jacqueline Bisset","actor_3":"Samantha Weaver","director":"Peter Yates","distributor":"Warner Brothers","fun_facts":" ","locations":"Enrico's Caf\u00e9 (504 Broadway)","production_company":"Warner Brothers \/ Seven Arts\nSeven Arts","release_year":1968,"title":"Bullitt","writer":"Alan R. Trustman","lat":37.798165,"lng":-122.4056481},{"actor_1":"Steve McQueen","actor_2":"Jacqueline Bisset","actor_3":"Dermot Mulroney","director":"Peter Yates","distributor":"Warner Brothers","fun_facts":" ","locations":"Columbus & Lombard Streets (North Beach)","production_company":"Warner Brothers \/ Seven Arts\nSeven Arts","release_year":1968,"title":"Bullitt","writer":"Alan R. Trustman","lat":37.8027549,"lng":-122.413728},{"actor_1":"Steve McQueen","actor_2":"Jacqueline Bisset","actor_3":"Dermot Mulroney","director":"Peter Yates","distributor":"Warner Brothers","fun_facts":" ","locations":"Candlestick Park Exit, Highway 101","production_company":"Warner Brothers \/ Seven Arts\nSeven Arts","release_year":1968,"title":"Bullitt","writer":"Alan R. Trustman","lat":37.7749295,"lng":-122.4194155},{"actor_1":"Steve McQueen","actor_2":"Jacqueline Bisset","actor_3":"Dermot Mulroney","director":"Peter Yates","distributor":"Warner Brothers","fun_facts":" ","locations":"Caf\u00e9 Cantata (2040 Union Street)","production_company":"Warner Brothers \/ Seven Arts\nSeven Arts","release_year":1968,"title":"Bullitt","writer":"Alan R. Trustman","lat":37.797639,"lng":-122.4329853},{"actor_1":"Steve McQueen","actor_2":"Jacqueline Bisset","actor_3":"Dermot Mulroney","director":"Peter Yates","distributor":"Warner Brothers","fun_facts":" ","locations":"Brocklebank Apartments (1000 Mason Street)","production_company":"Warner Brothers \/ Seven Arts\nSeven Arts","release_year":1968,"title":"Bullitt","writer":"Alan R. Trustman","lat":37.793093,"lng":-122.4105585},{"actor_1":"Steve McQueen","actor_2":"Jacqueline Bisset","actor_3":" ","director":"Peter Yates","distributor":"Warner Brothers","fun_facts":"Before opening in 1936, the bridge was blessed by Cardinal Secretary of State Eugenio Pacelli, who later became Pope Pius XII. ","locations":"Bay Bridge","production_company":"Warner Brothers \/ Seven Arts\nSeven Arts","release_year":1968,"title":"Bullitt","writer":"Alan R. Trustman","lat":37.80396,"lng":-122.426785},{"actor_1":"Steve McQueen","actor_2":"Jacqueline Bisset","actor_3":" ","director":"Peter Yates","distributor":"Warner Brothers","fun_facts":" ","locations":"2700 Vallejo Street (Pacific Heights)","production_company":"Warner Brothers \/ Seven Arts\nSeven Arts","release_year":1968,"title":"Bullitt","writer":"Alan R. Trustman","lat":37.794632,"lng":-122.442027},{"actor_1":"Steve McQueen","actor_2":"Jacqueline Bisset","actor_3":"Luther Adler","director":"Peter Yates","distributor":"Warner Brothers","fun_facts":"The most crooked street in San Francisco is actually Potrero Hill's Vermont Street between 20th St & 22nd St.","locations":"20th & Vermont Streets (Potrero Hill)","production_company":"Warner Brothers \/ Seven Arts\nSeven Arts","release_year":1968,"title":"Bullitt","writer":"Alan R. Trustman","lat":37.759572,"lng":-122.4040259},{"actor_1":"Steve McQueen","actor_2":"Jacqueline Bisset","actor_3":"Luther Adler","director":"Peter Yates","distributor":"Warner Brothers","fun_facts":"Embarcadero Freeway, which was featured in the film was demolished in 1989 because of structural damage from the 1989 Loma Prieta Earthquake)","locations":"1153-57 Taylor Street","production_company":"Warner Brothers \/ Seven Arts\nSeven Arts","release_year":1968,"title":"Bullitt","writer":"Alan R. Trustman","lat":37.7829257,"lng":-122.4109508},{"actor_1":"Whoopi Goldberg","actor_2":"Bobcat Goldwait","actor_3":"Luther Adler","director":"Hugh Wilson","distributor":"Warner Bros. Pictures","fun_facts":"Founded in 1853, 3 years after California joined the United States, the Academy was originally named the California Academy of Natural Sciences and was the first institution of its kind in the United States.","locations":"California Academy of Sciences (Golden Gate Park)","production_company":"Warner Bros. Pictures","release_year":1987,"title":"Burglar","writer":"Joseph Loeb III","lat":37.770743,"lng":-122.4660851},{"actor_1":"Whoopi Goldberg","actor_2":"Bobcat Goldwait","actor_3":"Luther Adler","director":"Hugh Wilson","distributor":"Warner Bros. Pictures","fun_facts":" ","locations":"Green Valley Restaurant (510 Green Street Near Grant)","production_company":"Warner Bros. Pictures","release_year":1987,"title":"Burglar","writer":"Joseph Loeb III","lat":37.7749295,"lng":-122.4194155},{"actor_1":"Whoopi Goldberg","actor_2":"Bobcat Goldwait","actor_3":"Luther Adler","director":"Hugh Wilson","distributor":"Warner Bros. Pictures","fun_facts":" ","locations":"1627 Haight Street","production_company":"Warner Bros. Pictures","release_year":1987,"title":"Burglar","writer":"Joseph Loeb III","lat":37.7697131,"lng":-122.4492417},{"actor_1":"Whoopi Goldberg","actor_2":"Bobcat Goldwait","actor_3":"Luther Adler","director":"Hugh Wilson","distributor":"Warner Bros. Pictures","fun_facts":" ","locations":"1400 18th Street","production_company":"Warner Bros. Pictures","release_year":1987,"title":"Burglar","writer":"Joseph Loeb III","lat":37.7627064,"lng":-122.3968104},{"actor_1":"Silas Howard","actor_2":" ","actor_3":"Luther Adler","director":"Harriet Dodge & Silas Howard","distributor":"Artistic License","fun_facts":" ","locations":"The Lexington Club (3464 19th Street at Lexington)","production_company":"Steakhaus Productions","release_year":2001,"title":"By Hook or By Crook","writer":"Harriet Dodge & Silas Howard","lat":37.7749295,"lng":-122.4194155},{"actor_1":"Silas Howard","actor_2":" ","actor_3":"Luther Adler","director":"Harriet Dodge & Silas Howard","distributor":"Artistic License","fun_facts":" ","locations":"Royan Hotel (405 Valencia Street, Mission District)","production_company":"Steakhaus Productions","release_year":2001,"title":"By Hook or By Crook","writer":"Harriet Dodge & Silas Howard","lat":37.7664055,"lng":-122.4218086},{"actor_1":"Silas Howard","actor_2":" ","actor_3":"Luther Adler","director":"Harriet Dodge & Silas Howard","distributor":"Artistic License","fun_facts":" ","locations":"Department of Public Health (101 Grove Street at Polk, Civic Center)","production_company":"Steakhaus Productions","release_year":2001,"title":"By Hook or By Crook","writer":"Harriet Dodge & Silas Howard","lat":37.7815533,"lng":-122.4156427},{"actor_1":" ","actor_2":" ","actor_3":" ","director":"Nancy Walker","distributor":"Associated Film Distribution (AFD)","fun_facts":" ","locations":"101 Henry Adams Place","production_company":"EMI Films","release_year":1980,"title":"Can't Stop the Music","writer":"Allan Carr","lat":37.7681227,"lng":-122.4033689},{"actor_1":"Annie Q","actor_2":"Francesca Eastwood","actor_3":"Pierson Fode","director":"Annie Wang","distributor":" ","fun_facts":" ","locations":"3639 Taraval St","production_company":"Fire Horse Film Productions LLC","release_year":2015,"title":"Cardinal X","writer":"Annie Wang","lat":37.7415828,"lng":-122.5053758},{"actor_1":"Annie Q","actor_2":"Francesca Eastwood","actor_3":"Pierson Fode","director":"Annie Wang","distributor":" ","fun_facts":" ","locations":"1458 33rd Ave.","production_company":"Fire Horse Film Productions LLC","release_year":2015,"title":"Cardinal X","writer":"Annie Wang","lat":37.759951,"lng":-122.491592},{"actor_1":"Annie Q","actor_2":"Francesca Eastwood","actor_3":"Pierson Fode","director":"Annie Wang","distributor":" ","fun_facts":" ","locations":"Lyon at Chestnut St.","production_company":"Fire Horse Film Productions LLC","release_year":2015,"title":"Cardinal X","writer":"Annie Wang","lat":37.7993888,"lng":-122.4475098},{"actor_1":"Annie Q","actor_2":"Francesca Eastwood","actor_3":"Pierson Fode","director":"Annie Wang","distributor":" ","fun_facts":" ","locations":"1559 Underwood Avenue between Lane and Keith","production_company":"Fire Horse Film Productions LLC","release_year":2015,"title":"Cardinal X","writer":"Annie Wang","lat":37.7749295,"lng":-122.4194155},{"actor_1":"Annie Q","actor_2":"Francesca Eastwood","actor_3":"Pierson Fode","director":"Annie Wang","distributor":" ","fun_facts":" ","locations":"1465 Revere Avenue between Keith and Jennings","production_company":"Fire Horse Film Productions LLC","release_year":2015,"title":"Cardinal X","writer":"Annie Wang","lat":37.7749295,"lng":-122.4194155},{"actor_1":"Annie Q","actor_2":"Francesca Eastwood","actor_3":"Pierson Fode","director":"Annie Wang","distributor":" ","fun_facts":" ","locations":"1601 Lane St.","production_company":"Fire Horse Film Productions LLC","release_year":2015,"title":"Cardinal X","writer":"Annie Wang","lat":37.7318281,"lng":-122.3896976},{"actor_1":"Annie Q","actor_2":"Francesca Eastwood","actor_3":"Pierson Fode","director":"Annie Wang","distributor":" ","fun_facts":" ","locations":"420 Mason St.","production_company":"Fire Horse Film Productions LLC","release_year":2015,"title":"Cardinal X","writer":"Annie Wang","lat":37.7875663,"lng":-122.4095949},{"actor_1":"Annie Q","actor_2":"Francesca Eastwood","actor_3":"Pierson Fode","director":"Annie Wang","distributor":" ","fun_facts":" ","locations":"119 Utah","production_company":"Fire Horse Film Productions LLC","release_year":2015,"title":"Cardinal X","writer":"Annie Wang","lat":37.7674562,"lng":-122.4069221},{"actor_1":"Annie Q","actor_2":"Francesca Eastwood","actor_3":"Pierson Fode","director":"Annie Wang","distributor":" ","fun_facts":" ","locations":"100 Alemany Blvd.","production_company":"Fire Horse Film Productions LLC","release_year":2015,"title":"Cardinal X","writer":"Annie Wang","lat":37.7357188,"lng":-122.4099429},{"actor_1":"Michael J. Fox","actor_2":"Sean Penn","actor_3":" ","director":"Brian DePalma","distributor":"Columbia Pictures","fun_facts":"The two land plots that comprise the Park were used as a Jewish cemetery until 1894 when San Francisco prohibited all burials within city limits. The graves were moved to Colma, CA.","locations":"Mission Dolores Park (Mission District) via J-Church MUNI Train","production_company":"Columbia Pictures Corporation","release_year":1989,"title":"Casualties of War","writer":"Daniel Lang","lat":37.7749295,"lng":-122.4194155},{"actor_1":" ","actor_2":" ","actor_3":" ","director":"Wayne Wang","distributor":"New Yorker Films","fun_facts":" ","locations":"Li Po (916 Grant Avenue at Washington, Chinatown)","production_company":"New Yorker Films","release_year":1982,"title":"Chan is Missing","writer":"Wayne Wang","lat":37.7941378,"lng":-122.4077914},{"actor_1":" ","actor_2":" ","actor_3":" ","director":"Wayne Wang","distributor":"New Yorker Films","fun_facts":" ","locations":"Golden Dragon Restaurant (816 Washington Street at Grant)","production_company":"New Yorker Films","release_year":1982,"title":"Chan is Missing","writer":"Wayne Wang","lat":37.7749295,"lng":-122.4194155},{"actor_1":"Brad Hunt","actor_2":"Robin Tunney","actor_3":"Brian Cox","director":"Finn Taylor","distributor":"Fine Line Features","fun_facts":" ","locations":"387 Fair Oaks at 25th Street","production_company":"3 Ring Circus Films","release_year":2002,"title":"Cherish","writer":"Finn Taylor","lat":37.750608,"lng":-122.423581},{"actor_1":"Alan Arkin","actor_2":"Carol Burnett","actor_3":" ","director":"David Lowell Rich","distributor":"Columbia Broadcasting System (CBS)","fun_facts":"Built in 1939, the Terminal linked San Francisco, the East Bay, and Sacramento by rail for the first time.","locations":"Transbay Terminal (Mission Street at 1st Street)","production_company":"Melvin Simon Productions","release_year":1981,"title":"Chu Chu and the Philly Flash","writer":"Henry Barrow","lat":37.7881209,"lng":-122.3954958},{"actor_1":"Alan Arkin","actor_2":"Carol Burnett","actor_3":" ","director":"David Lowell Rich","distributor":"Columbia Broadcasting System (CBS)","fun_facts":"In 1945 the Fairmont hosted the United Nations Conference on International Organization as delegates arrived to draft a charter for the organization. The U.S. Secretary of State, Edward Stettinius drafted the charter in the hotel's Garden Room.","locations":"Fairmont Hotel (950 Mason Street, Nob Hill)","production_company":"Melvin Simon Productions","release_year":1981,"title":"Chu Chu and the Philly Flash","writer":"Henry Barrow","lat":37.7924959,"lng":-122.4100354},{"actor_1":"Alan Arkin","actor_2":"Carol Burnett","actor_3":" ","director":"David Lowell Rich","distributor":"Columbia Broadcasting System (CBS)","fun_facts":" ","locations":"22nd and Carolina Streets (Potrero Hill)","production_company":"Melvin Simon Productions","release_year":1981,"title":"Chu Chu and the Philly Flash","writer":"Henry Barrow","lat":37.757247,"lng":-122.400008},{"actor_1":"Nicholas Cage","actor_2":"Meg Ryan","actor_3":" ","director":"Brad Silberling","distributor":"Warner Bros. Pictures","fun_facts":" ","locations":"San Francisco Public Library Main Branch (100 Larkin Street)","production_company":"Atlas Entertainment","release_year":1998,"title":"City of Angels","writer":"Dana Stevens","lat":37.7791156,"lng":-122.4157662},{"actor_1":"Gene Hackman","actor_2":"Mary Elizabeth Mastrantonio","actor_3":" ","director":"Michael Apted","distributor":"Twentieth Century Fox Film Corp.","fun_facts":"Mission Dolores' official name is Mission San Francisco de Assis. It is the oldest building in San Francisco, built in 1791, and has survived two major earthquakes.","locations":"Mission Dolores (3321 16th Street, Mission District)","production_company":"Interscope Communications","release_year":1991,"title":"Class Action","writer":"Carolyn Shelby","lat":37.7643856,"lng":-122.4275673},{"actor_1":"Gene Hackman","actor_2":"Mary Elizabeth Mastrantonio","actor_3":" ","director":"Michael Apted","distributor":"Twentieth Century Fox Film Corp.","fun_facts":"The dome of SF's City Hall is almost a foot taller than that of the US Capitol Building. In 1954, Joe DiMaggio and Marilyn Monroe married at the Beaux Arts-style building.","locations":"City Hall","production_company":"Interscope Communications","release_year":1991,"title":"Class Action","writer":"Carolyn Shelby","lat":37.5841781,"lng":-122.0775434},{"actor_1":"Gene Hackman","actor_2":"Mary Elizabeth Mastrantonio","actor_3":" ","director":"Michael Apted","distributor":"Twentieth Century Fox Film Corp.","fun_facts":" ","locations":"Bix Restaurant (56 Gold Street)","production_company":"Interscope Communications","release_year":1991,"title":"Class Action","writer":"Carolyn Shelby","lat":37.7968703,"lng":-122.4029418},{"actor_1":"Sara Lewinstein","actor_2":"David Mandell","actor_3":" ","director":"Rob Epstein","distributor":"Direct Cinema Limited","fun_facts":"From 1910-1920 the Castro was called \"Little Scandinavia\" because of its high concentration of residents of Scandinavian ancestry.","locations":"The Castro","production_company":"Home Box Office (HBO)","release_year":1989,"title":"Common Threads: Stories From the Quilt","writer":"Jeffrey Friedman","lat":37.7609082,"lng":-122.4350043},{"actor_1":"Sigourney Weaver","actor_2":"Holly Hunter","actor_3":" ","director":"Jon Amiel","distributor":"Warner Bros. Pictures","fun_facts":"An artificial island, Treasure Island was created for the 1939 Golden Gate International Exposition, and is named after the novel by Robert Louis Stevenson, a one-time San Francisco resident.","locations":"Treasure Island","production_company":"Regency Enterprises","release_year":1995,"title":"Copycat","writer":"Ann Biderman","lat":37.8235515,"lng":-122.370648},{"actor_1":"Sigourney Weaver","actor_2":"Holly Hunter","actor_3":" ","director":"Jon Amiel","distributor":"Warner Bros. Pictures","fun_facts":"The 2nd highest point in SF after Mt. Davidson, Twin Peaks sit at the geographic center of SF. The native Ohlone people called the area \u201cLos Pechos de la Chola\u201d or \"Breasts of the Indian Maiden,\" but in the 19th Century when America took over the area, it was renamed \"Twin Peaks\".","locations":"Twin Peaks","production_company":"Regency Enterprises","release_year":1995,"title":"Copycat","writer":"Ann Biderman","lat":37.7544066,"lng":-122.4476845},{"actor_1":"Sigourney Weaver","actor_2":"Holly Hunter","actor_3":" ","director":"Jon Amiel","distributor":"Warner Bros. Pictures","fun_facts":" ","locations":"Sound Factory (1st and Harrison Streets)","production_company":"Regency Enterprises","release_year":1995,"title":"Copycat","writer":"Ann Biderman","lat":37.772843,"lng":-122.4097083},{"actor_1":"Sigourney Weaver","actor_2":"Holly Hunter","actor_3":" ","director":"Jon Amiel","distributor":"Warner Bros. Pictures","fun_facts":" ","locations":"Java House (Pier 40, Embarcadero)","production_company":"Regency Enterprises","release_year":1995,"title":"Copycat","writer":"Ann Biderman","lat":37.7816834,"lng":-122.386577},{"actor_1":"Sigourney Weaver","actor_2":"Holly Hunter","actor_3":" ","director":"Jon Amiel","distributor":"Warner Bros. Pictures","fun_facts":"The park was originally a rock quarry and served as a campground for many survivors of the 1906 earthquake. The site was converted to a park in 1910.","locations":"Alta Plaza Park","production_company":"Regency Enterprises","release_year":1995,"title":"Copycat","writer":"Ann Biderman","lat":37.7911417,"lng":-122.4376241},{"actor_1":"Sigourney Weaver","actor_2":"Holly Hunter","actor_3":" ","director":"Jon Amiel","distributor":"Warner Bros. Pictures","fun_facts":" ","locations":"82 & 67 Rico Way (Marina District)","production_company":"Regency Enterprises","release_year":1995,"title":"Copycat","writer":"Ann Biderman","lat":37.804986,"lng":-122.439794},{"actor_1":"Donald Sutherland","actor_2":"Sean Penn","actor_3":" ","director":"Louis Malle","distributor":"Universal Pictures","fun_facts":" ","locations":"24th Street between Mission Street and Potrero Avenue","production_company":"Universal Pictures","release_year":1984,"title":"Crackers","writer":"Jeffrey Fiskin","lat":37.7577824,"lng":-122.4067395},{"actor_1":"Donald Sutherland","actor_2":"Sean Penn","actor_3":" ","director":"Louis Malle","distributor":"Universal Pictures","fun_facts":" ","locations":"La Rondalla (Valencia and 20th Streets)","production_company":"Universal Pictures","release_year":1984,"title":"Crackers","writer":"Jeffrey Fiskin","lat":37.7560653,"lng":-122.4776972},{"actor_1":"Gary Sinise","actor_2":"Sela Ward","actor_3":"Carmine Giovinazzo","director":"Vikki Williams","distributor":"Columbia Broadcasting System","fun_facts":" ","locations":"Palace of Fine Arts","production_company":"CBS Television Studios","release_year":2012,"title":"CSI: NY- episode 903","writer":"Anthony E. Zuiker","lat":37.8014783,"lng":-122.448175},{"actor_1":"Edmond O'Brien","actor_2":"Pamela Britton","actor_3":"Oliver Platt","director":"Rudolph Mate","distributor":"United Artists","fun_facts":" ","locations":"Powell & California Streets","production_company":"Cardinal Pictures","release_year":1950,"title":"D.O.A","writer":"Russell Rouse","lat":37.7920553,"lng":-122.4091864},{"actor_1":"Edmond O'Brien","actor_2":"Pamela Britton","actor_3":"Oliver Platt","director":"Rudolph Mate","distributor":"United Artists","fun_facts":" ","locations":"Southern Pacific Memorial Hospital (1400 Fell Street)","production_company":"Cardinal Pictures","release_year":1950,"title":"D.O.A","writer":"Russell Rouse","lat":37.7734008,"lng":-122.4418679},{"actor_1":"Edmond O'Brien","actor_2":"Pamela Britton","actor_3":"Oliver Platt","director":"Rudolph Mate","distributor":"United Artists","fun_facts":"Every hour and half-hour, the clock bell atop the Ferry Building chimes portions of the Westminster Quarters.","locations":"The Embarcadero\/ Ferry Building","production_company":"Cardinal Pictures","release_year":1950,"title":"D.O.A","writer":"Russell Rouse","lat":37.7749295,"lng":-122.4194155},{"actor_1":"Edmond O'Brien","actor_2":"Pamela Britton","actor_3":"Oliver Platt","director":"Rudolph Mate","distributor":"United Artists","fun_facts":"During the Civil War, pro-Union rallies were held in the Square, and thus the area was called \"Union Square\". ","locations":"Union Square","production_company":"Cardinal Pictures","release_year":1950,"title":"D.O.A","writer":"Russell Rouse","lat":37.7879938,"lng":-122.4074374},{"actor_1":"Edmond O'Brien","actor_2":"Pamela Britton","actor_3":" ","director":"Rudolph Mate","distributor":"United Artists","fun_facts":"The hotel was originally supposed to be named the Crocker Hotel, after Charles Founder the railroad magnate who founded it. However, the hotel took the name the St. Francis after one of the earliest Gold Rush hotels. ","locations":"Westin St. Francis Hotel (335 Powell Street)","production_company":"Cardinal Pictures","release_year":1950,"title":"D.O.A","writer":"Russell Rouse","lat":37.7878279,"lng":-122.4087315},{"actor_1":"Edmond O'Brien","actor_2":"Pamela Britton","actor_3":"Bruno Campos","director":"Rudolph Mate","distributor":"United Artists","fun_facts":" ","locations":"Chambord Apartments (1298 Sacramento Street at Jones)","production_company":"Cardinal Pictures","release_year":1950,"title":"D.O.A","writer":"Russell Rouse","lat":37.7749295,"lng":-122.4194155},{"actor_1":"Edmond O'Brien","actor_2":"Pamela Britton","actor_3":"Oliver Platt","director":"Rudolph Mate","distributor":"United Artists","fun_facts":"The Top of the Mark lounge and restaurant at the top of the hotel was formerly a penthouse suite.","locations":"Mark Hopkins Intercontinental Hotel (1 Nob Hill Circle)","production_company":"Cardinal Pictures","release_year":1950,"title":"D.O.A","writer":"Russell Rouse","lat":37.7914046,"lng":-122.4101888},{"actor_1":"Edmond O'Brien","actor_2":"Pamela Britton","actor_3":"Oliver Platt","director":"Rudolph Mate","distributor":"United Artists","fun_facts":" ","locations":"Market & Steuart Streets (Financial District)","production_company":"Cardinal Pictures","release_year":1950,"title":"D.O.A","writer":"Russell Rouse","lat":37.7944659,"lng":-122.3947991},{"actor_1":"Edmond O'Brien","actor_2":"Pamela Britton","actor_3":"Oliver Platt","director":"Rudolph Mate","distributor":"United Artists","fun_facts":" ","locations":"Market Street (from 6th- 4th Streets)","production_company":"Cardinal Pictures","release_year":1950,"title":"D.O.A","writer":"Russell Rouse","lat":37.7771547,"lng":-122.3950377},{"actor_1":"Humphrey Bogart","actor_2":"Lauren Bacal","actor_3":"Rob Schneider","director":"Delmer Daves","distributor":"Warner Bros. Pictures","fun_facts":"With 23 miles of ladders and 300,000 rivets in each tower, the Golden Gate Bridge was the world's longest span when it opened in 1937.","locations":"Golden Gate Bridge","production_company":"Warner Bros. Pictures","release_year":1947,"title":"Dark Passage","writer":"Delmer Daves & David Goodis","lat":37.8190534,"lng":-122.4784055},{"actor_1":"Humphrey Bogart","actor_2":"Lauren Bacal","actor_3":"Bruno Campos","director":"Delmer Daves","distributor":"Warner Bros. Pictures","fun_facts":" ","locations":"The Malloch Apartment Building (1360 Montgomery Street)","production_company":"Warner Bros. Pictures","release_year":1947,"title":"Dark Passage","writer":"Delmer Daves & David Goodis","lat":37.8017938,"lng":-122.4043215},{"actor_1":"Humphrey Bogart","actor_2":"Lauren Bacal","actor_3":"Raven-Symone","director":"Delmer Daves","distributor":"Warner Bros. Pictures","fun_facts":" ","locations":"Filbert Steps, Filbert Street","production_company":"Warner Bros. Pictures","release_year":1947,"title":"Dark Passage","writer":"Delmer Daves & David Goodis","lat":37.7995077,"lng":-122.4241083},{"actor_1":"Gary Oldman","actor_2":"Keri Russell","actor_3":"Andy Serkis","director":"Matt Reeves","distributor":"Twentieth Century Fox","fun_facts":" ","locations":"University Club","production_company":"Fox Louisiana Productions, LLC","release_year":2014,"title":"Dawn of the Planet of the Apes","writer":"Rick Jaffa","lat":37.7749295,"lng":-122.4194155},{"actor_1":"Gary Oldman","actor_2":"Keri Russell","actor_3":"Andy Serkis","director":"Matt Reeves","distributor":"Twentieth Century Fox","fun_facts":" ","locations":"Filbert St. from Hyde to Leavenworth","production_company":"Fox Louisiana Productions, LLC","release_year":2014,"title":"Dawn of the Planet of the Apes","writer":"Rick Jaffa","lat":37.7749295,"lng":-122.4194155},{"actor_1":"Gary Oldman","actor_2":"Keri Russell","actor_3":"Andy Serkis","director":"Matt Reeves","distributor":"Twentieth Century Fox","fun_facts":" ","locations":"California St from Mason to Kearny","production_company":"Fox Louisiana Productions, LLC","release_year":2014,"title":"Dawn of the Planet of the Apes","writer":"Rick Jaffa","lat":37.7749295,"lng":-122.4194155},{"actor_1":"Gary Oldman","actor_2":"Keri Russell","actor_3":"Andy Serkis","director":"Matt Reeves","distributor":"Twentieth Century Fox","fun_facts":" ","locations":"City Hall","production_company":"Fox Louisiana Productions, LLC","release_year":2014,"title":"Dawn of the Planet of the Apes","writer":"Rick Jaffa","lat":37.5841781,"lng":-122.0775434},{"actor_1":"Gary Oldman","actor_2":"Keri Russell","actor_3":"Andy Serkis","director":"Matt Reeves","distributor":"Twentieth Century Fox","fun_facts":" ","locations":"Alioto Park","production_company":"Fox Louisiana Productions, LLC","release_year":2014,"title":"Dawn of the Planet of the Apes","writer":"Rick Jaffa","lat":37.7588666,"lng":-122.4181453},{"actor_1":"Gary Oldman","actor_2":"Keri Russell","actor_3":"Andy Serkis","director":"Matt Reeves","distributor":"Twentieth Century Fox","fun_facts":" ","locations":"California & Powell ","production_company":"Fox Louisiana Productions, LLC","release_year":2014,"title":"Dawn of the Planet of the Apes","writer":"Rick Jaffa","lat":37.7920553,"lng":-122.4091864},{"actor_1":"Gary Oldman","actor_2":"Keri Russell","actor_3":"Andy Serkis","director":"Matt Reeves","distributor":"Twentieth Century Fox","fun_facts":" ","locations":"Columbus & Pacific Ave","production_company":"Fox Louisiana Productions, LLC","release_year":2014,"title":"Dawn of the Planet of the Apes","writer":"Rick Jaffa","lat":37.7970734,"lng":-122.4055576},{"actor_1":" ","actor_2":" ","actor_3":"Raven-Symone","director":"Wayne Wang","distributor":"Orion Classics","fun_facts":"SFO has a museum dedicated to aviation history. ","locations":"San Francisco International Airport","production_company":"CIM","release_year":1985,"title":"Dim Sum: A Little Bit of Heart","writer":"Terrel Seltzer","lat":37.6213129,"lng":-122.3789554},{"actor_1":" ","actor_2":" ","actor_3":"Raven-Symone","director":"Wayne Wang","distributor":"Orion Classics","fun_facts":" ","locations":"Li Po (916 Grant Avenue at Washington, Chinatown)","production_company":"CIM","release_year":1985,"title":"Dim Sum: A Little Bit of Heart","writer":"Terrel Seltzer","lat":37.7941378,"lng":-122.4077914},{"actor_1":" ","actor_2":" ","actor_3":" ","director":"Wayne Wang","distributor":"Orion Classics","fun_facts":"First established in the mid-19th Century, SF's Chinatown is the oldest and largest Chinatown in the US.","locations":"Chinatown","production_company":"CIM","release_year":1985,"title":"Dim Sum: A Little Bit of Heart","writer":"Terrel Seltzer","lat":37.7941378,"lng":-122.4077914},{"actor_1":"Clint Eastwood","actor_2":" ","actor_3":"Woody Harrelson","director":"Don Siegel","distributor":"Warner Brothers","fun_facts":"Before the 1906 earthquake, the land on which Marina Green sits was a tidal marsh, and rubble from the earthquake was dumped on the site. However, the site was filled in to provide land for the 1915 Panama-Pacific Exhibition. ","locations":"Marina Green, Marina District","production_company":"The Malpaso Company","release_year":1971,"title":"Dirty Harry","writer":"Harry Julian Fink","lat":37.8066235,"lng":-122.4391137},{"actor_1":"Clint Eastwood","actor_2":" ","actor_3":" ","director":"Don Siegel","distributor":"Warner Brothers","fun_facts":" ","locations":"Washington Square, North Beach","production_company":"The Malpaso Company","release_year":1971,"title":"Dirty Harry","writer":"Harry Julian Fink","lat":37.8009182,"lng":-122.410111},{"actor_1":"Clint Eastwood","actor_2":" ","actor_3":"Cathy Moriarty","director":"Don Siegel","distributor":"Warner Brothers","fun_facts":" ","locations":"The Embarcadero","production_company":"The Malpaso Company","release_year":1971,"title":"Dirty Harry","writer":"Harry Julian Fink","lat":37.7992627,"lng":-122.3976732},{"actor_1":"Clint Eastwood","actor_2":" ","actor_3":"Cathy Moriarty","director":"Don Siegel","distributor":"Warner Brothers","fun_facts":"Though Marilyn Monroe and Joe DiMaggio were not allowed to be married at the Church (DiMaggio had married his first wife at the Church but was divorced), the couple returned to the steps of the Church for photos, following their City Hall nuptials.","locations":"St. Peter & Paul's Church (666 Filbert Street, Washington Square)","production_company":"The Malpaso Company","release_year":1971,"title":"Dirty Harry","writer":"Harry Julian Fink","lat":37.8009182,"lng":-122.410111},{"actor_1":"Clint Eastwood","actor_2":" ","actor_3":" ","director":"Don Siegel","distributor":"Warner Brothers","fun_facts":" ","locations":"San Francisco Drydock (20th and Illinois Streets)","production_company":"The Malpaso Company","release_year":1971,"title":"Dirty Harry","writer":"Harry Julian Fink","lat":37.7567818,"lng":-122.3872155},{"actor_1":"Clint Eastwood","actor_2":" ","actor_3":"Woody Harrelson","director":"Don Siegel","distributor":"Warner Brothers","fun_facts":"In 1847 the first public school in California was erected on what would become Portsmouth Square.","locations":"Portsmouth Square (Chinatown)","production_company":"The Malpaso Company","release_year":1971,"title":"Dirty Harry","writer":"Harry Julian Fink","lat":37.7948051,"lng":-122.4051364},{"actor_1":"Clint Eastwood","actor_2":" ","actor_3":"Woody Harrelson","director":"Don Siegel","distributor":"Warner Brothers","fun_facts":"The cross sits at the highest point in San Francisco (938 feet). This version of the cross was erected in 1934.Though in Dirty Harry the cross is lit at night, the City stopped this practice in 1990.","locations":"Mt. Davidson Cross, Mt. Davidson","production_company":"The Malpaso Company","release_year":1971,"title":"Dirty Harry","writer":"Harry Julian Fink","lat":37.738346,"lng":-122.4547746},{"actor_1":"Clint Eastwood","actor_2":" ","actor_3":"Woody Harrelson","director":"Don Siegel","distributor":"Warner Brothers","fun_facts":"The two land plots that comprise the Park were used as a Jewish cemetery until 1894 when San Francisco prohibited all burials within city limits. The graves were moved to Colma, CA.","locations":"Mission Dolores Park (Mission District)","production_company":"The Malpaso Company","release_year":1971,"title":"Dirty Harry","writer":"Harry Julian Fink","lat":37.7597727,"lng":-122.427063},{"actor_1":"Clint Eastwood","actor_2":" ","actor_3":"Woody Harrelson","director":"Don Siegel","distributor":"Warner Brothers","fun_facts":"The stadium was demolished and completely rebuilt after sustaining damages in the 1898 Loma Prieta earthquake.","locations":"Kezar Stadium, Golden Gate Park","production_company":"The Malpaso Company","release_year":1971,"title":"Dirty Harry","writer":"Harry Julian Fink","lat":37.76904,"lng":-122.4835193},{"actor_1":"Clint Eastwood","actor_2":" ","actor_3":"Woody Harrelson","director":"Don Siegel","distributor":"Warner Brothers","fun_facts":" ","locations":"Holiday Inn Select Downtown Hotel (750 Kearney Street)","production_company":"The Malpaso Company","release_year":1971,"title":"Dirty Harry","writer":"Harry Julian Fink","lat":37.7749295,"lng":-122.4194155},